{
  "type" : "FeatureCollection",
  "features" : [{"type":"Feature","id":0,"geometry":{"type":"Point","coordinates":[91.822263500000005,22.3596468]},"properties":{"FID":0,"name":"O R Nizam Road Mosque","Category":"Religious Place","Type":"Mosque","Ownership":"","Ward_Name":0,"Zone":0}},{"type":"Feature","id":1,"geometry":{"type":"Point","coordinates":[91.817617999999996,22.449867099999999]},"properties":{"FID":1,"name":"Mosque","Category":"Religious Place","Type":"Mosque","Ownership":"","Ward_Name":0,"Zone":0}},{"type":"Feature","id":2,"geometry":{"type":"Point","coordinates":[91.817114399999994,22.453896]},"properties":{"FID":2,"name":"Akbariya Jame Mosjid","Category":"Religious Place","Type":"Mosque","Ownership":"","Ward_Name":0,"Zone":0}},{"type":"Feature","id":3,"geometry":{"type":"Point","coordinates":[91.816630799999999,22.460976599999999]},"properties":{"FID":3,"name":"Uttor Fatehabad Islamia Jame Masjjid","Category":"Religious Place","Type":"Mosque","Ownership":"","Ward_Name":0,"Zone":0}},{"type":"Feature","id":4,"geometry":{"type":"Point","coordinates":[91.8207716,22.364762800000001]},"properties":{"FID":4,"name":"Baitul Falah Mosque","Category":"Religious Place","Type":"Mosque","Ownership":"","Ward_Name":0,"Zone":0}},{"type":"Feature","id":5,"geometry":{"type":"Point","coordinates":[91.837367299999997,22.358499800000001]},"properties":{"FID":5,"name":"Oli Kha Mosque","Category":"Religious Place","Type":"Mosque","Ownership":"","Ward_Name":0,"Zone":0}},{"type":"Feature","id":6,"geometry":{"type":"Point","coordinates":[91.819780699999995,22.4206489]},"properties":{"FID":6,"name":"Aman Bazar Jame Mosque","Category":"Religious Place","Type":"Mosque","Ownership":"","Ward_Name":0,"Zone":0}},{"type":"Feature","id":7,"geometry":{"type":"Point","coordinates":[91.819547799999995,22.4245406]},"properties":{"FID":7,"name":"Laliarhat Jame Masjid, Chattogram Hathajari Highway, Chattogram","Category":"Religious Place","Type":"Mosque","Ownership":"","Ward_Name":0,"Zone":0}},{"type":"Feature","id":8,"geometry":{"type":"Point","coordinates":[91.828026899999998,22.3619512]},"properties":{"FID":8,"name":"Mokki Mosjid","Category":"Religious Place","Type":"Mosque","Ownership":"","Ward_Name":0,"Zone":0}},{"type":"Feature","id":9,"geometry":{"type":"Point","coordinates":[91.833321999999995,22.3736009]},"properties":{"FID":9,"name":"Tayebia Jame Mosjid","Category":"Religious Place","Type":"Mosque","Ownership":"","Ward_Name":0,"Zone":0}},{"type":"Feature","id":10,"geometry":{"type":"Point","coordinates":[91.824663200000003,22.388998399999998]},"properties":{"FID":10,"name":"Fakirtila jame Mosque","Category":"Religious Place","Type":"Mosque","Ownership":"","Ward_Name":0,"Zone":0}},{"type":"Feature","id":11,"geometry":{"type":"Point","coordinates":[91.827718899999994,22.340008699999998]},"properties":{"FID":11,"name":"Enayet Bazar Jame  Mosque","Category":"Religious Place","Type":"Mosque","Ownership":"","Ward_Name":0,"Zone":0}},{"type":"Feature","id":12,"geometry":{"type":"Point","coordinates":[91.832992099999998,22.334729200000002]},"properties":{"FID":12,"name":"Baitul Ikram Jame Masjid","Category":"Religious Place","Type":"Mosque","Ownership":"","Ward_Name":0,"Zone":0}},{"type":"Feature","id":13,"geometry":{"type":"Point","coordinates":[91.829929100000001,22.328608599999999]},"properties":{"FID":13,"name":"Daroga Hat Jame Masjiid, Darogha Hat Road, Chattogram","Category":"Religious Place","Type":"Mosque","Ownership":"","Ward_Name":0,"Zone":0}},{"type":"Feature","id":14,"geometry":{"type":"Point","coordinates":[91.826863299999999,22.3290477]},"properties":{"FID":14,"name":"Maloom Masjid","Category":"Religious Place","Type":"Mosque","Ownership":"","Ward_Name":0,"Zone":0}},{"type":"Feature","id":15,"geometry":{"type":"Point","coordinates":[91.815808200000006,22.327985200000001]},"properties":{"FID":15,"name":"Agrabad Jame Masjid, Agrabad, Chattogram","Category":"Religious Place","Type":"Mosque","Ownership":"","Ward_Name":0,"Zone":0}},{"type":"Feature","id":16,"geometry":{"type":"Point","coordinates":[91.809954599999998,22.3276781]},"properties":{"FID":16,"name":"Agrabad T&T Colony Jame Masjid","Category":"Religious Place","Type":"Mosque","Ownership":"","Ward_Name":0,"Zone":0}},{"type":"Feature","id":17,"geometry":{"type":"Point","coordinates":[91.813828999999998,22.3383754]},"properties":{"FID":17,"name":"Dewanhut Jame Masjid, Halishahar Rd, Chattogram","Category":"Religious Place","Type":"Mosque","Ownership":"","Ward_Name":0,"Zone":0}},{"type":"Feature","id":18,"geometry":{"type":"Point","coordinates":[91.814927699999998,22.3427392]},"properties":{"FID":18,"name":"Mama Bhagina Jame Masjid","Category":"Religious Place","Type":"Mosque","Ownership":"","Ward_Name":0,"Zone":0}},{"type":"Feature","id":19,"geometry":{"type":"Point","coordinates":[91.812510900000007,22.357019300000001]},"properties":{"FID":19,"name":"South Khulshi Jame Mosque","Category":"Religious Place","Type":"Mosque","Ownership":"","Ward_Name":0,"Zone":0}},{"type":"Feature","id":20,"geometry":{"type":"Point","coordinates":[91.815322100000003,22.3726387]},"properties":{"FID":20,"name":"প\u09C2র\u09CDব ন\u09BEস\u09BFর\u09BEব\u09BEদ জ\u09BEম\u09C7 মসজ\u09BFদ","Category":"Religious Place","Type":"Mosque","Ownership":"","Ward_Name":0,"Zone":0}},{"type":"Feature","id":21,"geometry":{"type":"Point","coordinates":[91.811392299999994,22.391071]},"properties":{"FID":21,"name":"Daarul Huda Jame Masjid","Category":"Religious Place","Type":"Mosque","Ownership":"","Ward_Name":0,"Zone":0}},{"type":"Feature","id":22,"geometry":{"type":"Point","coordinates":[91.837190399999997,22.363315799999999]},"properties":{"FID":22,"name":"Shayesta Khan Mosque","Category":"Religious Place","Type":"Mosque","Ownership":"","Ward_Name":0,"Zone":0}},{"type":"Feature","id":23,"geometry":{"type":"Point","coordinates":[91.8033176,22.328071999999999]},"properties":{"FID":23,"name":"Bepari Para Jame Mosjid, Halishahar Rd, Chattogram","Category":"Religious Place","Type":"Mosque","Ownership":"","Ward_Name":0,"Zone":0}},{"type":"Feature","id":24,"geometry":{"type":"Point","coordinates":[91.833813199999994,22.3467296]},"properties":{"FID":24,"name":"PDB Colony Jame Masjid","Category":"Religious Place","Type":"Mosque","Ownership":"","Ward_Name":0,"Zone":0}},{"type":"Feature","id":25,"geometry":{"type":"Point","coordinates":[91.836685799999998,22.361527599999999]},"properties":{"FID":25,"name":"Moulvi Bashir Ullah Masjid","Category":"Religious Place","Type":"Mosque","Ownership":"","Ward_Name":0,"Zone":0}},{"type":"Feature","id":26,"geometry":{"type":"Point","coordinates":[91.768279300000003,22.365438699999999]},"properties":{"FID":26,"name":"Bishwaspara Jaame Masjid","Category":"Religious Place","Type":"Mosque","Ownership":"","Ward_Name":0,"Zone":0}},{"type":"Feature","id":27,"geometry":{"type":"Point","coordinates":[91.841004499999997,22.359993100000001]},"properties":{"FID":27,"name":"Kapash Gola Jamtola Jame masjid","Category":"Religious Place","Type":"Mosque","Ownership":"","Ward_Name":0,"Zone":0}},{"type":"Feature","id":28,"geometry":{"type":"Point","coordinates":[91.836970199999996,22.358917000000002]},"properties":{"FID":28,"name":"Baitul Baseth Masjid","Category":"Religious Place","Type":"Mosque","Ownership":"","Ward_Name":0,"Zone":0}},{"type":"Feature","id":29,"geometry":{"type":"Point","coordinates":[91.845201200000005,22.358005299999999]},"properties":{"FID":29,"name":"Boro Mia Masjid","Category":"Religious Place","Type":"Mosque","Ownership":"","Ward_Name":0,"Zone":0}},{"type":"Feature","id":30,"geometry":{"type":"Point","coordinates":[91.848719399999993,22.359065999999999]},"properties":{"FID":30,"name":"Nur Begom Jame Masjid","Category":"Religious Place","Type":"Mosque","Ownership":"","Ward_Name":0,"Zone":0}},{"type":"Feature","id":31,"geometry":{"type":"Point","coordinates":[91.842394499999997,22.368238300000002]},"properties":{"FID":31,"name":"Bahaddarhat Jame Masjid","Category":"Religious Place","Type":"Mosque","Ownership":"","Ward_Name":0,"Zone":0}},{"type":"Feature","id":32,"geometry":{"type":"Point","coordinates":[91.836023900000001,22.351544700000002]},"properties":{"FID":32,"name":"Miskin Shah Jame Masjid","Category":"Religious Place","Type":"Mosque","Ownership":"","Ward_Name":0,"Zone":0}},{"type":"Feature","id":33,"geometry":{"type":"Point","coordinates":[91.819612699999993,22.356909099999999]},"properties":{"FID":33,"name":"Goribullah Shah Jame Masjid","Category":"Religious Place","Type":"Mosque","Ownership":"","Ward_Name":0,"Zone":0}},{"type":"Feature","id":34,"geometry":{"type":"Point","coordinates":[91.803208499999997,22.3292739]},"properties":{"FID":34,"name":"Osman Ghani Jame Mosjid","Category":"Religious Place","Type":"Mosque","Ownership":"","Ward_Name":0,"Zone":0}},{"type":"Feature","id":35,"geometry":{"type":"Point","coordinates":[91.795146700000004,22.328359299999999]},"properties":{"FID":35,"name":"Dewan Ali Sowdagor Mosque","Category":"Religious Place","Type":"Mosque","Ownership":"","Ward_Name":0,"Zone":0}},{"type":"Feature","id":36,"geometry":{"type":"Point","coordinates":[91.8422451,22.3639899]},"properties":{"FID":36,"name":"Badurtala Jame Mosjid","Category":"Religious Place","Type":"Mosque","Ownership":"","Ward_Name":0,"Zone":0}},{"type":"Feature","id":37,"geometry":{"type":"Point","coordinates":[91.839909000000006,22.3732355]},"properties":{"FID":37,"name":"Khatiberhat Kaderia Tayabia Jame Masjid","Category":"Religious Place","Type":"Mosque","Ownership":"","Ward_Name":0,"Zone":0}},{"type":"Feature","id":38,"geometry":{"type":"Point","coordinates":[91.836632399999999,22.371608500000001]},"properties":{"FID":38,"name":"Muhammadpur Afzal Mosjid","Category":"Religious Place","Type":"Mosque","Ownership":"","Ward_Name":0,"Zone":0}},{"type":"Feature","id":39,"geometry":{"type":"Point","coordinates":[91.828085599999994,22.370944999999999]},"properties":{"FID":39,"name":"Forest Research Jame Mosjid","Category":"Religious Place","Type":"Mosque","Ownership":"","Ward_Name":0,"Zone":0}},{"type":"Feature","id":40,"geometry":{"type":"Point","coordinates":[91.838204599999997,22.349777100000001]},"properties":{"FID":40,"name":"Chandanpura Mosjid","Category":"Religious Place","Type":"Mosque","Ownership":"","Ward_Name":0,"Zone":0}},{"type":"Feature","id":41,"geometry":{"type":"Point","coordinates":[91.819239300000007,22.3969506]},"properties":{"FID":41,"name":"Zilla Parishad Jame Masjid, Chittagong - Rangamati Hwy, Chattogram","Category":"Religious Place","Type":"Mosque","Ownership":"","Ward_Name":0,"Zone":0}},{"type":"Feature","id":42,"geometry":{"type":"Point","coordinates":[91.840177999999995,22.3579078]},"properties":{"FID":42,"name":"Chawkbazar City Corporation Shahi Jame Masjid","Category":"Religious Place","Type":"Mosque","Ownership":"","Ward_Name":0,"Zone":0}},{"type":"Feature","id":43,"geometry":{"type":"Point","coordinates":[91.7817948,22.345877300000001]},"properties":{"FID":43,"name":"Shapla Abashik Jame Mosque","Category":"Religious Place","Type":"Mosque","Ownership":"","Ward_Name":0,"Zone":0}},{"type":"Feature","id":44,"geometry":{"type":"Point","coordinates":[91.841897799999998,22.3641334]},"properties":{"FID":44,"name":"Badurtala Jame Masjid","Category":"Religious Place","Type":"Mosque","Ownership":"","Ward_Name":0,"Zone":0}},{"type":"Feature","id":45,"geometry":{"type":"Point","coordinates":[91.811307600000006,22.379020499999999]},"properties":{"FID":45,"name":"Mosque","Category":"Religious Place","Type":"Mosque","Ownership":"","Ward_Name":0,"Zone":0}},{"type":"Feature","id":46,"geometry":{"type":"Point","coordinates":[91.795880199999999,22.4609931]},"properties":{"FID":46,"name":"IFESCU Jame Masjid","Category":"Religious Place","Type":"Mosque","Ownership":"","Ward_Name":0,"Zone":0}},{"type":"Feature","id":47,"geometry":{"type":"Point","coordinates":[91.782016999999996,22.339290399999999]},"properties":{"FID":47,"name":"New I and New A Block Jame Mosque","Category":"Religious Place","Type":"Mosque","Ownership":"","Ward_Name":0,"Zone":0}},{"type":"Feature","id":48,"geometry":{"type":"Point","coordinates":[91.811900800000004,22.3208108]},"properties":{"FID":48,"name":"Goshaildanga Hindu Temple","Category":"Religious Place","Type":"Temple","Ownership":"","Ward_Name":0,"Zone":0}},{"type":"Feature","id":49,"geometry":{"type":"Point","coordinates":[91.833840100000003,22.349382299999998]},"properties":{"FID":49,"name":"Gurdwara Sikh Temple Estate","Category":"Religious Place","Type":"Temple","Ownership":"","Ward_Name":0,"Zone":0}},{"type":"Feature","id":50,"geometry":{"type":"Point","coordinates":[91.848034400000003,22.3565015]},"properties":{"FID":50,"name":"Baitun Nur Jame Masjid","Category":"Religious Place","Type":"Mosque","Ownership":"","Ward_Name":0,"Zone":0}},{"type":"Feature","id":51,"geometry":{"type":"Point","coordinates":[91.851115399999998,22.3735082]},"properties":{"FID":51,"name":"Bus Terminal Mosque","Category":"Religious Place","Type":"Mosque","Ownership":"","Ward_Name":0,"Zone":0}},{"type":"Feature","id":52,"geometry":{"type":"Point","coordinates":[91.782258299999995,22.361380499999999]},"properties":{"FID":52,"name":"Mahmud Khan Jame Masjid","Category":"Religious Place","Type":"Mosque","Ownership":"","Ward_Name":0,"Zone":0}},{"type":"Feature","id":53,"geometry":{"type":"Point","coordinates":[91.817529500000006,22.329029800000001]},"properties":{"FID":53,"name":"Mogoltuli Matabbor Bari Jame Masjid, Commerce College Road, Chattogram","Category":"Religious Place","Type":"Mosque","Ownership":"","Ward_Name":0,"Zone":0}},{"type":"Feature","id":54,"geometry":{"type":"Point","coordinates":[91.850140300000007,22.3767414]},"properties":{"FID":54,"name":"Sona Masjid","Category":"Religious Place","Type":"Mosque","Ownership":"","Ward_Name":0,"Zone":0}},{"type":"Feature","id":55,"geometry":{"type":"Point","coordinates":[91.851587600000002,22.376485500000001]},"properties":{"FID":55,"name":"Haji Abdul Latif Jame Masjid","Category":"Religious Place","Type":"Mosque","Ownership":"","Ward_Name":0,"Zone":0}},{"type":"Feature","id":56,"geometry":{"type":"Point","coordinates":[91.786392500000005,22.3572819]},"properties":{"FID":56,"name":"Kazi Mosque, Dhaka Trunk Rd, Chattogram","Category":"Religious Place","Type":"Mosque","Ownership":"","Ward_Name":0,"Zone":0}},{"type":"Feature","id":57,"geometry":{"type":"Point","coordinates":[91.7856776,22.357845600000001]},"properties":{"FID":57,"name":"Modina Market Jame Masjid, Dhaka Trunk Rd, Chattogram","Category":"Religious Place","Type":"Mosque","Ownership":"","Ward_Name":0,"Zone":0}},{"type":"Feature","id":58,"geometry":{"type":"Point","coordinates":[91.843480299999996,22.336572799999999]},"properties":{"FID":58,"name":"Madrassah Mosque","Category":"Religious Place","Type":"Mosque","Ownership":"","Ward_Name":0,"Zone":0}},{"type":"Feature","id":59,"geometry":{"type":"Point","coordinates":[91.830546400000003,22.341896299999998]},"properties":{"FID":59,"name":"Buddhist Temple","Category":"Religious Place","Type":"Buddhist Temple","Ownership":"","Ward_Name":0,"Zone":0}},{"type":"Feature","id":60,"geometry":{"type":"Point","coordinates":[91.830457499999994,22.336956799999999]},"properties":{"FID":60,"name":"Golam Rosul Market Mosque","Category":"Religious Place","Type":"Mosque","Ownership":"","Ward_Name":0,"Zone":0}},{"type":"Feature","id":61,"geometry":{"type":"Point","coordinates":[91.832079399999998,22.326955600000002]},"properties":{"FID":61,"name":"Bandar Manoharkhali Residential Area Jame Masjid, Raaz Hotel Ln, Chattogram","Category":"Religious Place","Type":"Mosque","Ownership":"","Ward_Name":0,"Zone":0}},{"type":"Feature","id":62,"geometry":{"type":"Point","coordinates":[91.837631599999995,22.3378576]},"properties":{"FID":62,"name":"Laldighi Shahi Jame Masjid","Category":"Religious Place","Type":"Mosque","Ownership":"","Ward_Name":0,"Zone":0}},{"type":"Feature","id":63,"geometry":{"type":"Point","coordinates":[91.827735399999995,22.362367599999999]},"properties":{"FID":63,"name":"Iskcon Prabartak Sri Krishna Mandir, Prabartak Circle, Bayazid Bostami Rd, Chattogram","Category":"Religious Place","Type":"Temple","Ownership":"","Ward_Name":0,"Zone":0}},{"type":"Feature","id":64,"geometry":{"type":"Point","coordinates":[91.8368775,22.3341274]},"properties":{"FID":64,"name":" ","Category":"Religious Place","Type":"Mosque","Ownership":"","Ward_Name":0,"Zone":0}},{"type":"Feature","id":65,"geometry":{"type":"Point","coordinates":[91.782869899999994,22.3445289]},"properties":{"FID":65,"name":" ","Category":"Religious Place","Type":"Mosque","Ownership":"","Ward_Name":0,"Zone":0}},{"type":"Feature","id":66,"geometry":{"type":"Point","coordinates":[91.784221500000001,22.344137100000001]},"properties":{"FID":66,"name":"Kali Bari","Category":"Religious Place","Type":"Temple","Ownership":"","Ward_Name":0,"Zone":0}},{"type":"Feature","id":67,"geometry":{"type":"Point","coordinates":[91.784985300000002,22.247243900000001]},"properties":{"FID":67,"name":"চ\u09BEরপ\u09BEড\u09BC\u09BE জ\u09BEম\u09C7 মসজ\u09BFদ","Category":"Religious Place","Type":"Mosque","Ownership":"","Ward_Name":0,"Zone":0}},{"type":"Feature","id":68,"geometry":{"type":"Point","coordinates":[91.831063599999993,22.335232900000001]},"properties":{"FID":68,"name":"BAtul Sarf Jame Masjid","Category":"Religious Place","Type":"Mosque","Ownership":"","Ward_Name":0,"Zone":0}},{"type":"Feature","id":69,"geometry":{"type":"Point","coordinates":[91.818413100000001,22.3651637]},"properties":{"FID":69,"name":"Baitush Salam Jame Mosque","Category":"Religious Place","Type":"Mosque","Ownership":"","Ward_Name":0,"Zone":0}},{"type":"Feature","id":70,"geometry":{"type":"Point","coordinates":[91.8071798,22.2541513]},"properties":{"FID":70,"name":"Maiz Para Jame Masjid, Unnamed Road, Chattogram","Category":"Religious Place","Type":"Mosque","Ownership":"","Ward_Name":0,"Zone":0}},{"type":"Feature","id":71,"geometry":{"type":"Point","coordinates":[91.798315799999997,22.252694699999999]},"properties":{"FID":71,"name":"CHOWDHURYPARA BAITUR RAHAMOT JAME MOSHJID","Category":"Religious Place","Type":"Mosque","Ownership":"","Ward_Name":0,"Zone":0}},{"type":"Feature","id":72,"geometry":{"type":"Point","coordinates":[91.814091899999994,22.2594365]},"properties":{"FID":72,"name":"B.A.F. Central Mosque","Category":"Religious Place","Type":"Mosque","Ownership":"","Ward_Name":0,"Zone":0}},{"type":"Feature","id":73,"geometry":{"type":"Point","coordinates":[91.7995509,22.268113899999999]},"properties":{"FID":73,"name":"মসজ\u09BFদ","Category":"Religious Place","Type":"Mosque","Ownership":"","Ward_Name":0,"Zone":0}},{"type":"Feature","id":74,"geometry":{"type":"Point","coordinates":[91.829236600000002,22.257232699999999]},"properties":{"FID":74,"name":"ল\u09BEলদ\u09BFয়\u09BE জ\u09BEম\u09C7 মসজ\u09BFদ","Category":"Religious Place","Type":"Mosque","Ownership":"","Ward_Name":0,"Zone":0}},{"type":"Feature","id":75,"geometry":{"type":"Point","coordinates":[91.781938199999999,22.281157400000001]},"properties":{"FID":75,"name":" ","Category":"Religious Place","Type":"Mosque","Ownership":"","Ward_Name":0,"Zone":0}},{"type":"Feature","id":76,"geometry":{"type":"Point","coordinates":[91.785035699999995,22.2793685]},"properties":{"FID":76,"name":" ","Category":"Religious Place","Type":"Mosque","Ownership":"","Ward_Name":0,"Zone":0}},{"type":"Feature","id":77,"geometry":{"type":"Point","coordinates":[91.814291100000005,22.4571997]},"properties":{"FID":77,"name":"Hajipara Jame Masjid","Category":"Religious Place","Type":"Mosque","Ownership":"","Ward_Name":0,"Zone":0}},{"type":"Feature","id":78,"geometry":{"type":"Point","coordinates":[91.814055699999997,22.459696999999998]},"properties":{"FID":78,"name":"Sree Sree Ramthakur Dham","Category":"Religious Place","Type":"Temple","Ownership":"","Ward_Name":0,"Zone":0}},{"type":"Feature","id":79,"geometry":{"type":"Point","coordinates":[91.816346300000006,22.459918200000001]},"properties":{"FID":79,"name":"SREE SREE MA MOGDESSHORI MONDIR","Category":"Religious Place","Type":"Mosque","Ownership":"","Ward_Name":0,"Zone":0}},{"type":"Feature","id":80,"geometry":{"type":"Point","coordinates":[91.804343200000005,22.460844600000001]},"properties":{"FID":80,"name":"Baytul Hamid Shahi Jame Masjid","Category":"Religious Place","Type":"Mosque","Ownership":"","Ward_Name":0,"Zone":0}},{"type":"Feature","id":81,"geometry":{"type":"Point","coordinates":[91.812126000000006,22.458716800000001]},"properties":{"FID":81,"name":"Sri Sri Loknath Brammacharii Sebashram","Category":"Religious Place","Type":"Temple","Ownership":"","Ward_Name":0,"Zone":0}},{"type":"Feature","id":82,"geometry":{"type":"Point","coordinates":[91.807476500000007,22.4521315]},"properties":{"FID":82,"name":"West Charakul Akbaria Jame Masjid","Category":"Religious Place","Type":"Mosque","Ownership":"","Ward_Name":0,"Zone":0}},{"type":"Feature","id":83,"geometry":{"type":"Point","coordinates":[91.8772199,22.412024500000001]},"properties":{"FID":83,"name":"Raja Khan Jame Mosque","Category":"Religious Place","Type":"Mosque","Ownership":"","Ward_Name":0,"Zone":0}},{"type":"Feature","id":84,"geometry":{"type":"Point","coordinates":[91.886272899999994,22.3970068]},"properties":{"FID":84,"name":"ক\u09BEল\u09C1রঘ\u09BEট জ\u09BEম\u09C7 মসজ\u09BFদ","Category":"Religious Place","Type":"Mosque","Ownership":"","Ward_Name":0,"Zone":0}},{"type":"Feature","id":85,"geometry":{"type":"Point","coordinates":[91.826440700000006,22.2512665]},"properties":{"FID":85,"name":"Baitul Aman Jami Mosque","Category":"Religious Place","Type":"Mosque","Ownership":"","Ward_Name":0,"Zone":0}},{"type":"Feature","id":86,"geometry":{"type":"Point","coordinates":[91.820523899999998,22.2431321]},"properties":{"FID":86,"name":"Baitun Noor Mosque","Category":"Religious Place","Type":"Mosque","Ownership":"","Ward_Name":0,"Zone":0}},{"type":"Feature","id":87,"geometry":{"type":"Point","coordinates":[91.887103699999997,22.405771600000001]},"properties":{"FID":87,"name":"Purbo Mohra Jame Masjid","Category":"Religious Place","Type":"Mosque","Ownership":"","Ward_Name":0,"Zone":0}},{"type":"Feature","id":88,"geometry":{"type":"Point","coordinates":[91.888233099999994,22.4017938]},"properties":{"FID":88,"name":"Srimad Shawmi Taranandha Mohakali Yogaahsrom","Category":"Religious Place","Type":"Temple","Ownership":"","Ward_Name":0,"Zone":0}},{"type":"Feature","id":89,"geometry":{"type":"Point","coordinates":[91.7824083,22.337458399999999]},"properties":{"FID":89,"name":"Baitul Akbar Jame Masjid, Golondaz Rd, Chattogram","Category":"Religious Place","Type":"Mosque","Ownership":"","Ward_Name":0,"Zone":0}},{"type":"Feature","id":90,"geometry":{"type":"Point","coordinates":[91.793005100000002,22.3093681]},"properties":{"FID":90,"name":"Port Officers Colony Masjid, Port Link Rd, Chattogram","Category":"Religious Place","Type":"Mosque","Ownership":"","Ward_Name":0,"Zone":0}},{"type":"Feature","id":91,"geometry":{"type":"Point","coordinates":[91.790770100000003,22.308867500000002]},"properties":{"FID":91,"name":"Hajrat Korban Ali Shah Mazar","Category":"Religious Place","Type":"Mosque","Ownership":"","Ward_Name":0,"Zone":0}},{"type":"Feature","id":92,"geometry":{"type":"Point","coordinates":[91.867643599999994,22.4019528]},"properties":{"FID":92,"name":"West Mohora Jame Masjid","Category":"Religious Place","Type":"Mosque","Ownership":"","Ward_Name":0,"Zone":0}},{"type":"Feature","id":93,"geometry":{"type":"Point","coordinates":[91.793019200000003,22.315662799999998]},"properties":{"FID":93,"name":"Adrshapara Baitun Nur Jame Masjid","Category":"Religious Place","Type":"Mosque","Ownership":"","Ward_Name":0,"Zone":0}},{"type":"Feature","id":94,"geometry":{"type":"Point","coordinates":[91.795860899999994,22.322550799999998]},"properties":{"FID":94,"name":"Port East Colony Mosque, Port Connecting Rd, Chattogram","Category":"Religious Place","Type":"Mosque","Ownership":"","Ward_Name":0,"Zone":0}},{"type":"Feature","id":95,"geometry":{"type":"Point","coordinates":[91.792873799999995,22.321546000000001]},"properties":{"FID":95,"name":"Port Buddhist Temple","Category":"Religious Place","Type":"Buddhist Temple","Ownership":"","Ward_Name":0,"Zone":0}},{"type":"Feature","id":96,"geometry":{"type":"Point","coordinates":[91.793164000000004,22.321581900000002]},"properties":{"FID":96,"name":"Port Hindu Temple","Category":"Religious Place","Type":"Temple","Ownership":"","Ward_Name":0,"Zone":0}},{"type":"Feature","id":97,"geometry":{"type":"Point","coordinates":[91.795410700000005,22.328214599999999]},"properties":{"FID":97,"name":"Chotopole Masjid","Category":"Religious Place","Type":"Mosque","Ownership":"","Ward_Name":0,"Zone":0}},{"type":"Feature","id":98,"geometry":{"type":"Point","coordinates":[91.796613899999997,22.330166899999998]},"properties":{"FID":98,"name":"Police Line Masjid, District Police lines, Chattogram","Category":"Religious Place","Type":"Mosque","Ownership":"","Ward_Name":0,"Zone":0}},{"type":"Feature","id":99,"geometry":{"type":"Point","coordinates":[91.799733900000007,22.328816700000001]},"properties":{"FID":99,"name":"Masjid E Amir Mosque, Agrabad access Rd, Chattogram","Category":"Religious Place","Type":"Mosque","Ownership":"","Ward_Name":0,"Zone":0}},{"type":"Feature","id":100,"geometry":{"type":"Point","coordinates":[91.797721600000003,22.324863499999999]},"properties":{"FID":100,"name":"Burir Mazar","Category":"Religious Place","Type":"Mosque","Ownership":"","Ward_Name":0,"Zone":0}},{"type":"Feature","id":101,"geometry":{"type":"Point","coordinates":[91.804085400000005,22.324540500000001]},"properties":{"FID":101,"name":"CDA Central Jame Mosque","Category":"Religious Place","Type":"Mosque","Ownership":"","Ward_Name":0,"Zone":0}},{"type":"Feature","id":102,"geometry":{"type":"Point","coordinates":[91.805322500000003,22.326097600000001]},"properties":{"FID":102,"name":"Nalapara Mosque","Category":"Religious Place","Type":"Mosque","Ownership":"","Ward_Name":0,"Zone":0}},{"type":"Feature","id":103,"geometry":{"type":"Point","coordinates":[91.811571299999997,22.333486700000002]},"properties":{"FID":103,"name":"Baitul Haque Jame Moshjid, 1st Floor, Kornofuli Market, Chowmuhony, Sheikh Mujib Road, Chattogram","Category":"Religious Place","Type":"Mosque","Ownership":"","Ward_Name":0,"Zone":0}},{"type":"Feature","id":104,"geometry":{"type":"Point","coordinates":[91.808673200000001,22.331659800000001]},"properties":{"FID":104,"name":"Al-Masjidul Monir","Category":"Religious Place","Type":"Mosque","Ownership":"","Ward_Name":0,"Zone":0}},{"type":"Feature","id":105,"geometry":{"type":"Point","coordinates":[91.807529500000001,22.330390699999999]},"properties":{"FID":105,"name":"Hazi Para Sunnia Jameh Mosque, HAZI PARA, Halishahar Rd, Chattogram","Category":"Religious Place","Type":"Mosque","Ownership":"","Ward_Name":0,"Zone":0}},{"type":"Feature","id":106,"geometry":{"type":"Point","coordinates":[91.807673699999995,22.333008299999999]},"properties":{"FID":106,"name":"Panwala Para Boro Masjid, Panwala Para, Chattogram","Category":"Religious Place","Type":"Mosque","Ownership":"","Ward_Name":0,"Zone":0}},{"type":"Feature","id":107,"geometry":{"type":"Point","coordinates":[91.818892599999998,22.4013724]},"properties":{"FID":107,"name":"Bayojid Mosque, Bayezid Link Road, Chittagong - Rangamati Hwy, Chattogram","Category":"Religious Place","Type":"Mosque","Ownership":"","Ward_Name":0,"Zone":0}},{"type":"Feature","id":108,"geometry":{"type":"Point","coordinates":[91.859497700000006,22.404224299999999]},"properties":{"FID":108,"name":"Quaish Chandgaon Sri Sri Shama Mondir","Category":"Religious Place","Type":"Temple","Ownership":"","Ward_Name":0,"Zone":0}},{"type":"Feature","id":109,"geometry":{"type":"Point","coordinates":[91.843536599999993,22.370846799999999]},"properties":{"FID":109,"name":"New Chandgoan R/A Jame Mosque","Category":"Religious Place","Type":"Mosque","Ownership":"","Ward_Name":0,"Zone":0}},{"type":"Feature","id":110,"geometry":{"type":"Point","coordinates":[91.816209799999996,22.4160681]},"properties":{"FID":110,"name":"BCSIR Laboratory Jame Masjid, Imdadul Haque Rd, Chittagong","Category":"Religious Place","Type":"Mosque","Ownership":"","Ward_Name":0,"Zone":0}},{"type":"Feature","id":111,"geometry":{"type":"Point","coordinates":[91.825863400000003,22.389801200000001]},"properties":{"FID":111,"name":"Hazi Abdul Karim Prayer Mosque","Category":"Religious Place","Type":"Mosque","Ownership":"","Ward_Name":0,"Zone":0}},{"type":"Feature","id":112,"geometry":{"type":"Point","coordinates":[91.836426900000006,22.370937999999999]},"properties":{"FID":112,"name":"Mohammadpur Chowdhury Mosjid","Category":"Religious Place","Type":"Mosque","Ownership":"","Ward_Name":0,"Zone":0}},{"type":"Feature","id":113,"geometry":{"type":"Point","coordinates":[91.8389849,22.371242800000001]},"properties":{"FID":113,"name":"Minjir Baag Gayebi Masjid","Category":"Religious Place","Type":"Mosque","Ownership":"","Ward_Name":0,"Zone":0}},{"type":"Feature","id":114,"geometry":{"type":"Point","coordinates":[91.817461600000001,22.323679500000001]},"properties":{"FID":114,"name":"খ\u09BEজ\u09BE গর\u09C0ব\u09C7 ন\u09C7ওয\u09BC\u09BEজ জ\u09BEম\u09C7 মসজ\u09BFদ","Category":"Religious Place","Type":"Mosque","Ownership":"","Ward_Name":0,"Zone":0}},{"type":"Feature","id":115,"geometry":{"type":"Point","coordinates":[91.854261399999999,22.3681245]},"properties":{"FID":115,"name":"Tayyabiya Sattar Mosque","Category":"Religious Place","Type":"Mosque","Ownership":"","Ward_Name":0,"Zone":0}},{"type":"Feature","id":116,"geometry":{"type":"Point","coordinates":[91.846460699999994,22.369133399999999]},"properties":{"FID":116,"name":"Bahaddarbari Jame Mosque","Category":"Religious Place","Type":"Mosque","Ownership":"","Ward_Name":0,"Zone":0}},{"type":"Feature","id":117,"geometry":{"type":"Point","coordinates":[91.846432199999995,22.3691858]},"properties":{"FID":117,"name":"Bahaddarbari Mosque","Category":"Religious Place","Type":"Mosque","Ownership":"","Ward_Name":0,"Zone":0}},{"type":"Feature","id":118,"geometry":{"type":"Point","coordinates":[91.852892999999995,22.3583842]},"properties":{"FID":118,"name":"Bakalia Government College Jame Mosque","Category":"Religious Place","Type":"Mosque","Ownership":"","Ward_Name":0,"Zone":0}},{"type":"Feature","id":119,"geometry":{"type":"Point","coordinates":[91.859285400000005,22.357287299999999]},"properties":{"FID":119,"name":"Iqra Jame Mosque","Category":"Religious Place","Type":"Mosque","Ownership":"","Ward_Name":0,"Zone":0}},{"type":"Feature","id":120,"geometry":{"type":"Point","coordinates":[91.778321399999996,22.378629799999999]},"properties":{"FID":120,"name":"Nandon Housing Jame Masjid, Salimpur, Chattogram","Category":"Religious Place","Type":"Mosque","Ownership":"","Ward_Name":0,"Zone":0}},{"type":"Feature","id":121,"geometry":{"type":"Point","coordinates":[91.775763299999994,22.373361800000001]},"properties":{"FID":121,"name":"Colonel Hat CDA Jame Mosque, Salimpur, Chattogram","Category":"Religious Place","Type":"Mosque","Ownership":"","Ward_Name":0,"Zone":0}},{"type":"Feature","id":122,"geometry":{"type":"Point","coordinates":[91.7653581,22.372405199999999]},"properties":{"FID":122,"name":"Temple Based Education Centre, Salimpur, Chattogram","Category":"Religious Place","Type":"Temple","Ownership":"","Ward_Name":0,"Zone":0}},{"type":"Feature","id":123,"geometry":{"type":"Point","coordinates":[91.772401400000007,22.370416599999999]},"properties":{"FID":123,"name":"Sebakhola Mondir, Ishan Mohajon Rd, Salimpur, Chattogram","Category":"Religious Place","Type":"Temple","Ownership":"","Ward_Name":0,"Zone":0}},{"type":"Feature","id":124,"geometry":{"type":"Point","coordinates":[91.7692725,22.368340100000001]},"properties":{"FID":124,"name":" ","Category":"Religious Place","Type":"Mosque","Ownership":"","Ward_Name":0,"Zone":0}},{"type":"Feature","id":125,"geometry":{"type":"Point","coordinates":[91.766157800000002,22.370644200000001]},"properties":{"FID":125,"name":"Sri Sri Raksha Kali Bari, Salimpur, Chattogram","Category":"Religious Place","Type":"Temple","Ownership":"","Ward_Name":0,"Zone":0}},{"type":"Feature","id":126,"geometry":{"type":"Point","coordinates":[91.774171800000005,22.3704052]},"properties":{"FID":126,"name":" ","Category":"Religious Place","Type":"Mosque","Ownership":"","Ward_Name":0,"Zone":0}},{"type":"Feature","id":127,"geometry":{"type":"Point","coordinates":[91.773927400000005,22.372964799999998]},"properties":{"FID":127,"name":" ","Category":"Religious Place","Type":"Mosque","Ownership":"","Ward_Name":0,"Zone":0}},{"type":"Feature","id":128,"geometry":{"type":"Point","coordinates":[91.772557899999995,22.3694022]},"properties":{"FID":128,"name":"Sree Sree Jalakumari Mandir, Ishan Mohajon Rd, Salimpur, Chattogram","Category":"Religious Place","Type":"Temple","Ownership":"","Ward_Name":0,"Zone":0}},{"type":"Feature","id":129,"geometry":{"type":"Point","coordinates":[91.768195300000002,22.369117599999999]},"properties":{"FID":129,"name":" ","Category":"Religious Place","Type":"Mosque","Ownership":"","Ward_Name":0,"Zone":0}},{"type":"Feature","id":130,"geometry":{"type":"Point","coordinates":[91.771141400000005,22.3649752]},"properties":{"FID":130,"name":"Baitul Moqaddas Jame Masjid","Category":"Religious Place","Type":"Mosque","Ownership":"","Ward_Name":0,"Zone":0}},{"type":"Feature","id":131,"geometry":{"type":"Point","coordinates":[91.775490500000004,22.368540299999999]},"properties":{"FID":131,"name":" ","Category":"Religious Place","Type":"Temple","Ownership":"","Ward_Name":0,"Zone":0}},{"type":"Feature","id":132,"geometry":{"type":"Point","coordinates":[91.769745400000005,22.366507899999998]},"properties":{"FID":132,"name":" ","Category":"Religious Place","Type":"Mosque","Ownership":"","Ward_Name":0,"Zone":0}},{"type":"Feature","id":133,"geometry":{"type":"Point","coordinates":[91.761170300000003,22.362835499999999]},"properties":{"FID":133,"name":" ","Category":"Religious Place","Type":"Mosque","Ownership":"","Ward_Name":0,"Zone":0}},{"type":"Feature","id":134,"geometry":{"type":"Point","coordinates":[91.768904599999999,22.366843100000001]},"properties":{"FID":134,"name":"Zakerul Ulum Jame Masjid, Madrasa Rd, Chattogram","Category":"Religious Place","Type":"Mosque","Ownership":"","Ward_Name":0,"Zone":0}},{"type":"Feature","id":135,"geometry":{"type":"Point","coordinates":[91.766307600000005,22.3671732]},"properties":{"FID":135,"name":"Kutub Jame Masjid, Chattogram","Category":"Religious Place","Type":"Mosque","Ownership":"","Ward_Name":0,"Zone":0}},{"type":"Feature","id":136,"geometry":{"type":"Point","coordinates":[91.771958699999999,22.3722542]},"properties":{"FID":136,"name":"Sri Sri Koiboillanath Shreemad Bhagwat Geeta Shikha Niketon, Mostofa-Hakim College Rd, Chattogram","Category":"Religious Place","Type":"Temple","Ownership":"","Ward_Name":0,"Zone":0}},{"type":"Feature","id":137,"geometry":{"type":"Point","coordinates":[91.773083799999995,22.3694299]},"properties":{"FID":137,"name":"Nobograha Bari (Temple)","Category":"Religious Place","Type":"Temple","Ownership":"","Ward_Name":0,"Zone":0}},{"type":"Feature","id":138,"geometry":{"type":"Point","coordinates":[91.776495400000002,22.365200699999999]},"properties":{"FID":138,"name":"Ispahani Summit Alliance Mosque, Chattogram","Category":"Religious Place","Type":"Mosque","Ownership":"","Ward_Name":0,"Zone":0}},{"type":"Feature","id":139,"geometry":{"type":"Point","coordinates":[91.779940100000005,22.364739700000001]},"properties":{"FID":139,"name":" ","Category":"Religious Place","Type":"Mosque","Ownership":"","Ward_Name":0,"Zone":0}},{"type":"Feature","id":140,"geometry":{"type":"Point","coordinates":[91.781262499999997,22.3633302]},"properties":{"FID":140,"name":"PDB Jame Masjid, Chattogram","Category":"Religious Place","Type":"Mosque","Ownership":"","Ward_Name":0,"Zone":0}},{"type":"Feature","id":141,"geometry":{"type":"Point","coordinates":[91.775369999999995,22.366335100000001]},"properties":{"FID":141,"name":"Sri Sri Joy Kali Mondir, Chattogram","Category":"Religious Place","Type":"Temple","Ownership":"","Ward_Name":0,"Zone":0}},{"type":"Feature","id":142,"geometry":{"type":"Point","coordinates":[91.774826099999999,22.3662341]},"properties":{"FID":142,"name":"Ma Durga Mondir, Mazumder Bari, Colonel Jones Road, Chattogram","Category":"Religious Place","Type":"Temple","Ownership":"","Ward_Name":0,"Zone":0}},{"type":"Feature","id":143,"geometry":{"type":"Point","coordinates":[91.773522299999996,22.366067099999999]},"properties":{"FID":143,"name":"Darogabari Furqania Madrasa and Mosque, Colonel Jones Road, Chattogram","Category":"Religious Place","Type":"Mosque","Ownership":"","Ward_Name":0,"Zone":0}},{"type":"Feature","id":144,"geometry":{"type":"Point","coordinates":[91.773906400000001,22.3633579]},"properties":{"FID":144,"name":" ","Category":"Religious Place","Type":"Mosque","Ownership":"","Ward_Name":0,"Zone":0}},{"type":"Feature","id":145,"geometry":{"type":"Point","coordinates":[91.769127900000001,22.363986100000002]},"properties":{"FID":145,"name":"শ\u09BEহ আছদ আল\u09C0 ব\u09BEড\u09BC\u09BF এব\u09BEদতখ\u09BEন\u09BE","Category":"Religious Place","Type":"Mosque","Ownership":"","Ward_Name":0,"Zone":0}},{"type":"Feature","id":146,"geometry":{"type":"Point","coordinates":[91.769791999999995,22.363940100000001]},"properties":{"FID":146,"name":"Baitur Rahmat Jamea Mosjid, Colonel Jones Road, Chattogram","Category":"Religious Place","Type":"Mosque","Ownership":"","Ward_Name":0,"Zone":0}},{"type":"Feature","id":147,"geometry":{"type":"Point","coordinates":[91.780967899999993,22.359846699999999]},"properties":{"FID":147,"name":"A K. Khan Jaame Masjid, Chattogram","Category":"Religious Place","Type":"Mosque","Ownership":"","Ward_Name":0,"Zone":0}},{"type":"Feature","id":148,"geometry":{"type":"Point","coordinates":[91.781011899999996,22.358681000000001]},"properties":{"FID":148,"name":" ","Category":"Religious Place","Type":"Mosque","Ownership":"","Ward_Name":0,"Zone":0}},{"type":"Feature","id":149,"geometry":{"type":"Point","coordinates":[91.778065900000001,22.356485800000002]},"properties":{"FID":149,"name":"Goru Bazar Jame Masjid, Alankar more, Chattogram","Category":"Religious Place","Type":"Mosque","Ownership":"","Ward_Name":0,"Zone":0}},{"type":"Feature","id":150,"geometry":{"type":"Point","coordinates":[91.7672381,22.3474775]},"properties":{"FID":150,"name":" ","Category":"Religious Place","Type":"Mosque","Ownership":"","Ward_Name":0,"Zone":0}},{"type":"Feature","id":151,"geometry":{"type":"Point","coordinates":[91.766818400000005,22.3539782]},"properties":{"FID":151,"name":" ","Category":"Religious Place","Type":"Mosque","Ownership":"","Ward_Name":0,"Zone":0}},{"type":"Feature","id":152,"geometry":{"type":"Point","coordinates":[91.763762799999995,22.339664599999999]},"properties":{"FID":152,"name":"স\u09BEগড\u09BC প\u09BEড\u09BC মসজ\u09BFদ","Category":"Religious Place","Type":"Mosque","Ownership":"","Ward_Name":0,"Zone":0}},{"type":"Feature","id":153,"geometry":{"type":"Point","coordinates":[91.770890199999997,22.34713]},"properties":{"FID":153,"name":" ","Category":"Religious Place","Type":"Mosque","Ownership":"","Ward_Name":0,"Zone":0}},{"type":"Feature","id":154,"geometry":{"type":"Point","coordinates":[91.770628900000006,22.345044999999999]},"properties":{"FID":154,"name":"Mohammad Hossain Chowdhury Jame Mosque, Chanmia Road, South Kattali, Chattogram","Category":"Religious Place","Type":"Mosque","Ownership":"","Ward_Name":0,"Zone":0}},{"type":"Feature","id":155,"geometry":{"type":"Point","coordinates":[91.773700700000006,22.344873499999999]},"properties":{"FID":155,"name":" ","Category":"Religious Place","Type":"Mosque","Ownership":"","Ward_Name":0,"Zone":0}},{"type":"Feature","id":156,"geometry":{"type":"Point","coordinates":[91.771155399999998,22.3421643]},"properties":{"FID":156,"name":" ","Category":"Religious Place","Type":"Mosque","Ownership":"","Ward_Name":0,"Zone":0}},{"type":"Feature","id":157,"geometry":{"type":"Point","coordinates":[91.773838600000005,22.341242900000001]},"properties":{"FID":157,"name":"Baitul Moajjam Jame Mosque, Goli Chipa Para, Chattogram","Category":"Religious Place","Type":"Mosque","Ownership":"","Ward_Name":0,"Zone":0}},{"type":"Feature","id":158,"geometry":{"type":"Point","coordinates":[91.766417700000005,22.342144399999999]},"properties":{"FID":158,"name":"Baitul Mamur Jame Masjid, Unnamed Road, Chattogram","Category":"Religious Place","Type":"Mosque","Ownership":"","Ward_Name":0,"Zone":0}},{"type":"Feature","id":159,"geometry":{"type":"Point","coordinates":[91.771523099999996,22.340593999999999]},"properties":{"FID":159,"name":"Nowarish Khan Chy Bari Mosque, Unnamed Road, Chattogram","Category":"Religious Place","Type":"Mosque","Ownership":"","Ward_Name":0,"Zone":0}},{"type":"Feature","id":160,"geometry":{"type":"Point","coordinates":[91.770919800000001,22.342885500000001]},"properties":{"FID":160,"name":"Alhaj Ashraf Ali Jame Masjid, Goli Chipa Para, Chattogram","Category":"Religious Place","Type":"Mosque","Ownership":"","Ward_Name":0,"Zone":0}},{"type":"Feature","id":161,"geometry":{"type":"Point","coordinates":[91.772653500000004,22.339479600000001]},"properties":{"FID":161,"name":" ","Category":"Religious Place","Type":"Mosque","Ownership":"","Ward_Name":0,"Zone":0}},{"type":"Feature","id":162,"geometry":{"type":"Point","coordinates":[91.772344399999994,22.337205600000001]},"properties":{"FID":162,"name":"Phul Chowdhury Para Akbar Ali Jame Masjid, Phul Chowdhury Para, Chattogram","Category":"Religious Place","Type":"Mosque","Ownership":"","Ward_Name":0,"Zone":0}},{"type":"Feature","id":163,"geometry":{"type":"Point","coordinates":[91.777788999999999,22.338932]},"properties":{"FID":163,"name":"Masjid-A-Baitul Azim, Halishahar Housing Estate, Chattogram","Category":"Religious Place","Type":"Mosque","Ownership":"","Ward_Name":0,"Zone":0}},{"type":"Feature","id":164,"geometry":{"type":"Point","coordinates":[91.782920000000004,22.357470800000002]},"properties":{"FID":164,"name":"Haji Abdul Ali Jame Mosque, Port Connecting Rd, Chattogram","Category":"Religious Place","Type":"Mosque","Ownership":"","Ward_Name":0,"Zone":0}},{"type":"Feature","id":165,"geometry":{"type":"Point","coordinates":[91.784450699999994,22.357503900000001]},"properties":{"FID":165,"name":"Honeymoon Tower Masjid,Honeymoon Tower (1st Floor)D.T.Road Abdul Ali Hat, Chattogram","Category":"Religious Place","Type":"Mosque","Ownership":"","Ward_Name":0,"Zone":0}},{"type":"Feature","id":166,"geometry":{"type":"Point","coordinates":[91.783327,22.3562777]},"properties":{"FID":166,"name":"Baitul Moazzam Central Jame Masjid, Sagorika Rd, Chattogram","Category":"Religious Place","Type":"Mosque","Ownership":"","Ward_Name":0,"Zone":0}},{"type":"Feature","id":167,"geometry":{"type":"Point","coordinates":[91.789754299999998,22.359807700000001]},"properties":{"FID":167,"name":"Shyama Kali Bari Durga Mandir, New shahid lane, Akbarshah Ln, Chattogram","Category":"Religious Place","Type":"Temple","Ownership":"","Ward_Name":0,"Zone":0}},{"type":"Feature","id":168,"geometry":{"type":"Point","coordinates":[91.7907881,22.358378399999999]},"properties":{"FID":168,"name":"Sikh Temple, Shahid Ln, Chattogram","Category":"Religious Place","Type":"Temple","Ownership":"","Ward_Name":0,"Zone":0}},{"type":"Feature","id":169,"geometry":{"type":"Point","coordinates":[91.781611600000005,22.355508199999999]},"properties":{"FID":169,"name":" ","Category":"Religious Place","Type":"Mosque","Ownership":"","Ward_Name":0,"Zone":0}},{"type":"Feature","id":170,"geometry":{"type":"Point","coordinates":[91.783090799999997,22.352829100000001]},"properties":{"FID":170,"name":" ","Category":"Religious Place","Type":"Mosque","Ownership":"","Ward_Name":0,"Zone":0}},{"type":"Feature","id":171,"geometry":{"type":"Point","coordinates":[91.779896300000004,22.355975900000001]},"properties":{"FID":171,"name":"Sagorika Baptist Church","Category":"Religious Place","Type":"Church","Ownership":"","Ward_Name":0,"Zone":0}},{"type":"Feature","id":172,"geometry":{"type":"Point","coordinates":[91.786525900000001,22.347617499999998]},"properties":{"FID":172,"name":"Green View Residential Area Jame Masjid, R/A Port Connecting Rd, Chattogram","Category":"Religious Place","Type":"Mosque","Ownership":"","Ward_Name":0,"Zone":0}},{"type":"Feature","id":173,"geometry":{"type":"Point","coordinates":[91.787103799999997,22.341606899999999]},"properties":{"FID":173,"name":" ","Category":"Religious Place","Type":"Mosque","Ownership":"","Ward_Name":0,"Zone":0}},{"type":"Feature","id":174,"geometry":{"type":"Point","coordinates":[91.788426599999994,22.3342405]},"properties":{"FID":174,"name":"AC Masjid Halisahar, Ac mosjid, Chattogram","Category":"Religious Place","Type":"Mosque","Ownership":"","Ward_Name":0,"Zone":0}},{"type":"Feature","id":175,"geometry":{"type":"Point","coordinates":[91.792529400000006,22.323657099999998]},"properties":{"FID":175,"name":"Port New Market Jame Masjid, Port Connecting Rd, Chattogram","Category":"Religious Place","Type":"Mosque","Ownership":"","Ward_Name":0,"Zone":0}},{"type":"Feature","id":176,"geometry":{"type":"Point","coordinates":[91.793461399999998,22.322231899999998]},"properties":{"FID":176,"name":"Baitul Araf jame masjid, Port Connecting Rd, Chattogram","Category":"Religious Place","Type":"Mosque","Ownership":"","Ward_Name":0,"Zone":0}},{"type":"Feature","id":177,"geometry":{"type":"Point","coordinates":[91.789321000000001,22.343920900000001]},"properties":{"FID":177,"name":"Hazrat Abdullah Shah (Rh.)","Category":"Religious Place","Type":"Mosque","Ownership":"","Ward_Name":0,"Zone":0}},{"type":"Feature","id":178,"geometry":{"type":"Point","coordinates":[91.789484599999994,22.341587700000002]},"properties":{"FID":178,"name":"Chan jamadar mosjid, Chand Jomadar, Mosjid Lane, Middle, Bow Bazar, Chattogram","Category":"Religious Place","Type":"Mosque","Ownership":"","Ward_Name":0,"Zone":0}},{"type":"Feature","id":179,"geometry":{"type":"Point","coordinates":[91.790693300000001,22.337764100000001]},"properties":{"FID":179,"name":"Anondipur Jame Masjid, Anandipur Rd, Chattogram","Category":"Religious Place","Type":"Mosque","Ownership":"","Ward_Name":0,"Zone":0}},{"type":"Feature","id":180,"geometry":{"type":"Point","coordinates":[91.788961200000003,22.338910500000001]},"properties":{"FID":180,"name":"Kali Mondir, Oci mia, Chodu Chowdhury Rd, Chattogram","Category":"Religious Place","Type":"Temple","Ownership":"","Ward_Name":0,"Zone":0}},{"type":"Feature","id":181,"geometry":{"type":"Point","coordinates":[91.790712999999997,22.331206099999999]},"properties":{"FID":181,"name":"L Block Mosjidul Salam, L Block Jame Masjid, Port Connecting Rd, Chattogram","Category":"Religious Place","Type":"Mosque","Ownership":"","Ward_Name":0,"Zone":0}},{"type":"Feature","id":182,"geometry":{"type":"Point","coordinates":[91.792221400000003,22.326113599999999]},"properties":{"FID":182,"name":"Monsur Market Mosque, Halishahar Rd, Chattogram","Category":"Religious Place","Type":"Mosque","Ownership":"","Ward_Name":0,"Zone":0}},{"type":"Feature","id":183,"geometry":{"type":"Point","coordinates":[91.792920499999994,22.324342900000001]},"properties":{"FID":183,"name":"Port graveyard mosque, Chittagong Port Graveyard, Port Connecting Rd, Chattogram","Category":"Religious Place","Type":"Mosque","Ownership":"","Ward_Name":0,"Zone":0}},{"type":"Feature","id":184,"geometry":{"type":"Point","coordinates":[91.798365200000006,22.3203569]},"properties":{"FID":184,"name":" ","Category":"Religious Place","Type":"Mosque","Ownership":"","Ward_Name":0,"Zone":0}},{"type":"Feature","id":185,"geometry":{"type":"Point","coordinates":[91.795176799999993,22.329442400000001]},"properties":{"FID":185,"name":"Singapore Somobay Somiti Market Mosque, Agrabad Access Rd, Chattogram","Category":"Religious Place","Type":"Mosque","Ownership":"","Ward_Name":0,"Zone":0}},{"type":"Feature","id":186,"geometry":{"type":"Point","coordinates":[91.798646700000006,22.3308979]},"properties":{"FID":186,"name":"Rowshon Mannan Jame Masjid, Agrabad Access Rd, Chattogram","Category":"Religious Place","Type":"Mosque","Ownership":"","Ward_Name":0,"Zone":0}},{"type":"Feature","id":187,"geometry":{"type":"Point","coordinates":[91.803404700000002,22.3294082]},"properties":{"FID":187,"name":"Osmania Jame Masjid, Muhuri Para Road, Chattogram","Category":"Religious Place","Type":"Mosque","Ownership":"","Ward_Name":0,"Zone":0}},{"type":"Feature","id":188,"geometry":{"type":"Point","coordinates":[91.791096300000007,22.343940700000001]},"properties":{"FID":188,"name":"Alhaj Monir Ahmed Jame Masjid, Noya Bazar, Chattogram","Category":"Religious Place","Type":"Mosque","Ownership":"","Ward_Name":0,"Zone":0}},{"type":"Feature","id":189,"geometry":{"type":"Point","coordinates":[91.810770199999993,22.3193035]},"properties":{"FID":189,"name":"Goshaildanga Sharodiya Durgautshob Udzapon Parishad - Baroari Puja, Gosaildanga Bandar, Chattogram","Category":"Religious Place","Type":"Temple","Ownership":"","Ward_Name":0,"Zone":0}},{"type":"Feature","id":190,"geometry":{"type":"Point","coordinates":[91.788840300000004,22.343998899999999]},"properties":{"FID":190,"name":"Notun Bazar Shahi Jame Masjid, Dhaka Chittagong Highway, Chattogram","Category":"Religious Place","Type":"Mosque","Ownership":"","Ward_Name":0,"Zone":0}},{"type":"Feature","id":191,"geometry":{"type":"Point","coordinates":[91.797068499999995,22.344620500000001]},"properties":{"FID":191,"name":"Bow Bazar Jame Masjid, Bow Bazar, Chattogram","Category":"Religious Place","Type":"Mosque","Ownership":"","Ward_Name":0,"Zone":0}},{"type":"Feature","id":192,"geometry":{"type":"Point","coordinates":[91.798486999999994,22.343067600000001]},"properties":{"FID":192,"name":"Boro Pukur Par Masjid, Fatema monjil, Boro pukur par, Chattogram","Category":"Religious Place","Type":"Mosque","Ownership":"","Ward_Name":0,"Zone":0}},{"type":"Feature","id":193,"geometry":{"type":"Point","coordinates":[91.7975134,22.345653299999999]},"properties":{"FID":193,"name":" ","Category":"Religious Place","Type":"Mosque","Ownership":"","Ward_Name":0,"Zone":0}},{"type":"Feature","id":194,"geometry":{"type":"Point","coordinates":[91.7918059,22.3419089]},"properties":{"FID":194,"name":" ","Category":"Religious Place","Type":"Mosque","Ownership":"","Ward_Name":0,"Zone":0}},{"type":"Feature","id":195,"geometry":{"type":"Point","coordinates":[91.791831200000004,22.339195700000001]},"properties":{"FID":195,"name":"Basundhora Hazrat Abu Bakr Siddique (R) Jame Masjid Complex, Mayor road, Chattogram","Category":"Religious Place","Type":"Mosque","Ownership":"","Ward_Name":0,"Zone":0}},{"type":"Feature","id":196,"geometry":{"type":"Point","coordinates":[91.810506099999998,22.332384999999999]},"properties":{"FID":196,"name":"Pir Bari Jame Masjid, Halishahar Rd, Chattogram","Category":"Religious Place","Type":"Mosque","Ownership":"","Ward_Name":0,"Zone":0}},{"type":"Feature","id":197,"geometry":{"type":"Point","coordinates":[91.774695800000003,22.331951400000001]},"properties":{"FID":197,"name":"Abbas Para Jame Mosque, Unnamed Road, Chattogram","Category":"Religious Place","Type":"Mosque","Ownership":"","Ward_Name":0,"Zone":0}},{"type":"Feature","id":198,"geometry":{"type":"Point","coordinates":[91.778590399999999,22.3260276]},"properties":{"FID":198,"name":"Physical Training College Mosque, Halishahar Rd, Chattogram","Category":"Religious Place","Type":"Mosque","Ownership":"","Ward_Name":0,"Zone":0}},{"type":"Feature","id":199,"geometry":{"type":"Point","coordinates":[91.773393100000007,22.326125600000001]},"properties":{"FID":199,"name":" ","Category":"Religious Place","Type":"Mosque","Ownership":"","Ward_Name":0,"Zone":0}},{"type":"Feature","id":200,"geometry":{"type":"Point","coordinates":[91.788162200000002,22.3225376]},"properties":{"FID":200,"name":"Bandar Prodhan Jame Masjid, Port Colony Rd, Chattogram","Category":"Religious Place","Type":"Mosque","Ownership":"","Ward_Name":0,"Zone":0}},{"type":"Feature","id":201,"geometry":{"type":"Point","coordinates":[91.778258399999999,22.323392299999998]},"properties":{"FID":201,"name":"M. A. Aziz Masjid","Category":"Religious Place","Type":"Mosque","Ownership":"","Ward_Name":0,"Zone":0}},{"type":"Feature","id":202,"geometry":{"type":"Point","coordinates":[91.783948699999996,22.329493899999999]},"properties":{"FID":202,"name":"Sundobi Para Jame masjid, Lane No. 9, Chattogram","Category":"Religious Place","Type":"Mosque","Ownership":"","Ward_Name":0,"Zone":0}},{"type":"Feature","id":203,"geometry":{"type":"Point","coordinates":[91.788810999999995,22.327460299999998]},"properties":{"FID":203,"name":"Baitur Rahman Jame Masjid, Boropole Housing Society, North Halishahar, Chattogram","Category":"Religious Place","Type":"Mosque","Ownership":"","Ward_Name":0,"Zone":0}},{"type":"Feature","id":204,"geometry":{"type":"Point","coordinates":[91.784063599999996,22.317288300000001]},"properties":{"FID":204,"name":"Vuiya Gazi Jame Masjid, Port Link Rd, Chattogram","Category":"Religious Place","Type":"Mosque","Ownership":"","Ward_Name":0,"Zone":0}},{"type":"Feature","id":205,"geometry":{"type":"Point","coordinates":[91.780497600000004,22.3123574]},"properties":{"FID":205,"name":"Ashraful Ulum Madrasa Mosque, Ananda Bazar, Chattogram","Category":"Religious Place","Type":"Mosque","Ownership":"","Ward_Name":0,"Zone":0}},{"type":"Feature","id":206,"geometry":{"type":"Point","coordinates":[91.785656799999998,22.3150412]},"properties":{"FID":206,"name":"Nurkhan Chowdhury Zame Mosque, Sottar haji bari halisohor, Chattogram","Category":"Religious Place","Type":"Mosque","Ownership":"","Ward_Name":0,"Zone":0}},{"type":"Feature","id":207,"geometry":{"type":"Point","coordinates":[91.792727400000004,22.315654200000001]},"properties":{"FID":207,"name":"Baittun Noor Mosque Graveyeard, Port Link Rd, Chattogram","Category":"Religious Place","Type":"Mosque","Ownership":"","Ward_Name":0,"Zone":0}},{"type":"Feature","id":208,"geometry":{"type":"Point","coordinates":[91.786248999999998,22.313307099999999]},"properties":{"FID":208,"name":"Halima Hakim Forkania Madrasha & Mosque, Unnamed Road, Chattogram","Category":"Religious Place","Type":"Mosque","Ownership":"","Ward_Name":0,"Zone":0}},{"type":"Feature","id":209,"geometry":{"type":"Point","coordinates":[91.773944599999993,22.3207153]},"properties":{"FID":209,"name":"Hafej Muniruddin Nurullah (R) Jame Masjid, Halishahar Rd, Chattogram","Category":"Religious Place","Type":"Mosque","Ownership":"","Ward_Name":0,"Zone":0}},{"type":"Feature","id":210,"geometry":{"type":"Point","coordinates":[91.782273700000005,22.317784400000001]},"properties":{"FID":210,"name":"Safarnesha Jame Masjid, Munir Nagar, Jora pukur par, Chattogram","Category":"Religious Place","Type":"Mosque","Ownership":"","Ward_Name":0,"Zone":0}},{"type":"Feature","id":211,"geometry":{"type":"Point","coordinates":[91.778149900000003,22.30819]},"properties":{"FID":211,"name":"Abdul Aziz Malum Jame Masjid, CEPZ Connecting Rd, Chattogram","Category":"Religious Place","Type":"Mosque","Ownership":"","Ward_Name":0,"Zone":0}},{"type":"Feature","id":212,"geometry":{"type":"Point","coordinates":[91.779899400000005,22.306669100000001]},"properties":{"FID":212,"name":"Sachi Chawdhury Para Mosque, Alishahpara Rd, Chattogram","Category":"Religious Place","Type":"Mosque","Ownership":"","Ward_Name":0,"Zone":0}},{"type":"Feature","id":213,"geometry":{"type":"Point","coordinates":[91.786494200000007,22.306903399999999]},"properties":{"FID":213,"name":"Khwaja Gharib Nawaz Jame Masjid, Maizpara, Big Grave Road, Chattogram","Category":"Religious Place","Type":"Mosque","Ownership":"","Ward_Name":0,"Zone":0}},{"type":"Feature","id":214,"geometry":{"type":"Point","coordinates":[91.789400499999999,22.3097794]},"properties":{"FID":214,"name":"১ ন\u0982 স\u09BEইট জ\u09BEম\u09C7 মসজ\u09BFদ","Category":"Religious Place","Type":"Mosque","Ownership":"","Ward_Name":0,"Zone":0}},{"type":"Feature","id":215,"geometry":{"type":"Point","coordinates":[91.790754100000001,22.305973999999999]},"properties":{"FID":215,"name":"Abdul Mabud Saudagar Jame Mosque, Bus Stop, Ishan Mistry Hut, Chattogram","Category":"Religious Place","Type":"Mosque","Ownership":"","Ward_Name":0,"Zone":0}},{"type":"Feature","id":216,"geometry":{"type":"Point","coordinates":[91.783516700000007,22.307720700000001]},"properties":{"FID":216,"name":"Halishahar Islamia Complex & Mosque, Unnamed Road, Chattogram","Category":"Religious Place","Type":"Mosque","Ownership":"","Ward_Name":0,"Zone":0}},{"type":"Feature","id":217,"geometry":{"type":"Point","coordinates":[91.788284000000004,22.312182]},"properties":{"FID":217,"name":"Sri Sri Ram Thakur Sebasangh, Hindupara, Chattogram","Category":"Religious Place","Type":"Temple","Ownership":"","Ward_Name":0,"Zone":0}},{"type":"Feature","id":218,"geometry":{"type":"Point","coordinates":[91.788287600000004,22.305850599999999]},"properties":{"FID":218,"name":"Loharpul Mosque, Niscintapara, Chattogram","Category":"Religious Place","Type":"Mosque","Ownership":"","Ward_Name":0,"Zone":0}},{"type":"Feature","id":219,"geometry":{"type":"Point","coordinates":[91.785333600000001,22.304183399999999]},"properties":{"FID":219,"name":"Baitul Aman Jame Masjid, Kumari Dighir Par Jame Mosque, Chattogram","Category":"Religious Place","Type":"Mosque","Ownership":"","Ward_Name":0,"Zone":0}},{"type":"Feature","id":220,"geometry":{"type":"Point","coordinates":[91.782298400000002,22.304070899999999]},"properties":{"FID":220,"name":"Abdul Khalek Showdagor Jame Masjid, Alishahpara Rd, Chattogram","Category":"Religious Place","Type":"Mosque","Ownership":"","Ward_Name":0,"Zone":0}},{"type":"Feature","id":221,"geometry":{"type":"Point","coordinates":[91.781172900000001,22.300444299999999]},"properties":{"FID":221,"name":"Khanjahan Ali (RA) Jame Masjid, CEPZ Connecting Rd, Chattogram","Category":"Religious Place","Type":"Mosque","Ownership":"","Ward_Name":0,"Zone":0}},{"type":"Feature","id":222,"geometry":{"type":"Point","coordinates":[91.783267600000002,22.300679800000001]},"properties":{"FID":222,"name":"Baitul Izzat Jame Masjid, Mailer matha, Kalu member er barir west side, Chattogram","Category":"Religious Place","Type":"Mosque","Ownership":"","Ward_Name":0,"Zone":0}},{"type":"Feature","id":223,"geometry":{"type":"Point","coordinates":[91.788312599999998,22.304413100000001]},"properties":{"FID":223,"name":"Ali Sarang Jame Mosque, Halisahar, Chattogram","Category":"Religious Place","Type":"Mosque","Ownership":"","Ward_Name":0,"Zone":0}},{"type":"Feature","id":224,"geometry":{"type":"Point","coordinates":[91.788176199999995,22.301702599999999]},"properties":{"FID":224,"name":"Hadu Sharang Jame Mosque, Hadu Sarang Bari, Chattogram","Category":"Religious Place","Type":"Mosque","Ownership":"","Ward_Name":0,"Zone":0}},{"type":"Feature","id":225,"geometry":{"type":"Point","coordinates":[91.784959200000003,22.298765400000001]},"properties":{"FID":225,"name":" ","Category":"Religious Place","Type":"Mosque","Ownership":"","Ward_Name":0,"Zone":0}},{"type":"Feature","id":226,"geometry":{"type":"Point","coordinates":[91.780847699999995,22.294692600000001]},"properties":{"FID":226,"name":"Baitur Redwan Jame Mosjid, Gazi barir kalshir dige road C.E.P.Z, Chattogram","Category":"Religious Place","Type":"Mosque","Ownership":"","Ward_Name":0,"Zone":0}},{"type":"Feature","id":227,"geometry":{"type":"Point","coordinates":[91.781902099999996,22.298226100000001]},"properties":{"FID":227,"name":"Washil Chowdhury Para Mosque, South Middle Halishahar, Kolshi Digir Par, Chattogram","Category":"Religious Place","Type":"Mosque","Ownership":"","Ward_Name":0,"Zone":0}},{"type":"Feature","id":228,"geometry":{"type":"Point","coordinates":[91.779352700000004,22.294332600000001]},"properties":{"FID":228,"name":" ","Category":"Religious Place","Type":"Mosque","Ownership":"","Ward_Name":0,"Zone":0}},{"type":"Feature","id":229,"geometry":{"type":"Point","coordinates":[91.772080299999999,22.292707799999999]},"properties":{"FID":229,"name":"CEPZ Central Mosque, CEPZ HP-DRS., Chattogram","Category":"Religious Place","Type":"Mosque","Ownership":"","Ward_Name":0,"Zone":0}},{"type":"Feature","id":230,"geometry":{"type":"Point","coordinates":[91.77843,22.301940699999999]},"properties":{"FID":230,"name":"Hajrat Jafar Ali Malum Moshjid","Category":"Religious Place","Type":"Mosque","Ownership":"","Ward_Name":0,"Zone":0}},{"type":"Feature","id":231,"geometry":{"type":"Point","coordinates":[91.778298599999999,22.301831499999999]},"properties":{"FID":231,"name":"ঐত\u09BFহ\u09CDযব\u09BEহ\u09C0 হযরত জ\u09BEফর আল\u09BF ম\u09BEল\u09C1ম জ\u09BEম\u09C7 ম","Category":"Religious Place","Type":"Mosque","Ownership":"","Ward_Name":0,"Zone":0}},{"type":"Feature","id":232,"geometry":{"type":"Point","coordinates":[91.767461499999996,22.313265600000001]},"properties":{"FID":232,"name":"Prayer Place At Ananda Bazar Sea Beach, Chittagong Coastal Rd, Chattogram","Category":"Religious Place","Type":"Mosque","Ownership":"","Ward_Name":0,"Zone":0}},{"type":"Feature","id":233,"geometry":{"type":"Point","coordinates":[91.785619999999994,22.3341849]},"properties":{"FID":233,"name":"G-Block Shahi Jame Masjid gul chattar, Port Connecting Rd, Chattogram","Category":"Religious Place","Type":"Mosque","Ownership":"","Ward_Name":0,"Zone":0}},{"type":"Feature","id":234,"geometry":{"type":"Point","coordinates":[91.781127499999997,22.338877400000001]},"properties":{"FID":234,"name":" ","Category":"Religious Place","Type":"Mosque","Ownership":"","Ward_Name":0,"Zone":0}},{"type":"Feature","id":235,"geometry":{"type":"Point","coordinates":[91.779599399999995,22.340613699999999]},"properties":{"FID":235,"name":"Halishahar Housing Estate Central Jame Masjid, Somoy Rd, Chattogram","Category":"Religious Place","Type":"Mosque","Ownership":"","Ward_Name":0,"Zone":0}},{"type":"Feature","id":236,"geometry":{"type":"Point","coordinates":[91.779730799999996,22.3405393]},"properties":{"FID":236,"name":"A-Block Jame Mosque, Halishahar, Chattogram","Category":"Religious Place","Type":"Mosque","Ownership":"","Ward_Name":0,"Zone":0}},{"type":"Feature","id":237,"geometry":{"type":"Point","coordinates":[91.786300400000002,22.3365571]},"properties":{"FID":237,"name":"Halishahar H-Block Jame Mosjid, Halishahar,H-Block,Lane-02,Road-01,House-01, Chattogram","Category":"Religious Place","Type":"Mosque","Ownership":"","Ward_Name":0,"Zone":0}},{"type":"Feature","id":238,"geometry":{"type":"Point","coordinates":[91.786337799999998,22.338120199999999]},"properties":{"FID":238,"name":"Khan Bari Baitush Sharaf Jame Masjid, Kalibari Mondirer pashe, Chattogram","Category":"Religious Place","Type":"Mosque","Ownership":"","Ward_Name":0,"Zone":0}},{"type":"Feature","id":239,"geometry":{"type":"Point","coordinates":[91.782352799999998,22.339212]},"properties":{"FID":239,"name":"Bashir-ullah Baituch Salam Masque, New I-Block, house13, Chattogram","Category":"Religious Place","Type":"Mosque","Ownership":"","Ward_Name":0,"Zone":0}},{"type":"Feature","id":240,"geometry":{"type":"Point","coordinates":[91.787896799999999,22.337594599999999]},"properties":{"FID":240,"name":"Old Qazir Hat Jame Masjid, Sayed Vila, House-07 Road-02, Chattogram","Category":"Religious Place","Type":"Mosque","Ownership":"","Ward_Name":0,"Zone":0}},{"type":"Feature","id":241,"geometry":{"type":"Point","coordinates":[91.785268200000004,22.340752800000001]},"properties":{"FID":241,"name":"Anandadhara Abdus Sobhan Jame Mosque, SH Villa, Halishahar, Chattogram","Category":"Religious Place","Type":"Mosque","Ownership":"","Ward_Name":0,"Zone":0}},{"type":"Feature","id":242,"geometry":{"type":"Point","coordinates":[91.784814800000007,22.342057199999999]},"properties":{"FID":242,"name":"Omor Jahan Jame Masjid, Halishahar Rd, Chattogram","Category":"Religious Place","Type":"Mosque","Ownership":"","Ward_Name":0,"Zone":0}},{"type":"Feature","id":243,"geometry":{"type":"Point","coordinates":[91.779223599999995,22.3445781]},"properties":{"FID":243,"name":"Hazrat Osman Jame Masjid, Bus Stand A block, Rd No. 1, Chattogram","Category":"Religious Place","Type":"Mosque","Ownership":"","Ward_Name":0,"Zone":0}},{"type":"Feature","id":244,"geometry":{"type":"Point","coordinates":[91.776434199999997,22.344074299999999]},"properties":{"FID":244,"name":"Baitun Nur Jame Masjid, Halishahar, Chattogram","Category":"Religious Place","Type":"Mosque","Ownership":"","Ward_Name":0,"Zone":0}},{"type":"Feature","id":245,"geometry":{"type":"Point","coordinates":[91.803268200000005,22.3425203]},"properties":{"FID":245,"name":"Wapda Colony Jame Masjid, Eidgah, D T Road, Monsurabad, Chattogram","Category":"Religious Place","Type":"Mosque","Ownership":"","Ward_Name":0,"Zone":0}},{"type":"Feature","id":246,"geometry":{"type":"Point","coordinates":[91.802661799999996,22.3407874]},"properties":{"FID":246,"name":"Madajjapara Mosque, Unnamed Road, Chattogram","Category":"Religious Place","Type":"Mosque","Ownership":"","Ward_Name":0,"Zone":0}},{"type":"Feature","id":247,"geometry":{"type":"Point","coordinates":[91.799752600000005,22.339699599999999]},"properties":{"FID":247,"name":"Hazardighi Jame Mosque, Eadgha, Chattogram","Category":"Religious Place","Type":"Mosque","Ownership":"","Ward_Name":0,"Zone":0}},{"type":"Feature","id":248,"geometry":{"type":"Point","coordinates":[91.796082600000005,22.3384383]},"properties":{"FID":248,"name":"Ramna residential area Jame Masjid, Road No-1, Masjid Road, North Agrabad, Chattogram","Category":"Religious Place","Type":"Mosque","Ownership":"","Ward_Name":0,"Zone":0}},{"type":"Feature","id":249,"geometry":{"type":"Point","coordinates":[91.798058699999999,22.336316199999999]},"properties":{"FID":249,"name":"Rongipara Choto Masjid, Unnamed Road, Chattogram","Category":"Religious Place","Type":"Mosque","Ownership":"","Ward_Name":0,"Zone":0}},{"type":"Feature","id":250,"geometry":{"type":"Point","coordinates":[91.798349700000003,22.339307600000001]},"properties":{"FID":250,"name":"Eidgah Hazar Dighir Par Munshi Para Mosque, Eadgha, Chattogram","Category":"Religious Place","Type":"Mosque","Ownership":"","Ward_Name":0,"Zone":0}},{"type":"Feature","id":251,"geometry":{"type":"Point","coordinates":[91.796620500000003,22.3370411]},"properties":{"FID":251,"name":"Ali miya jamiya mosque, Shiraz Mansion, 351/b-2 Rd No 2, Chattogram","Category":"Religious Place","Type":"Mosque","Ownership":"","Ward_Name":0,"Zone":0}},{"type":"Feature","id":252,"geometry":{"type":"Point","coordinates":[91.795310599999993,22.3338085]},"properties":{"FID":252,"name":"Agrabad Housing Jame Mosque, Unnamed Road, Chattogram","Category":"Religious Place","Type":"Mosque","Ownership":"","Ward_Name":0,"Zone":0}},{"type":"Feature","id":253,"geometry":{"type":"Point","coordinates":[91.797478299999995,22.332810200000001]},"properties":{"FID":253,"name":"Shantibag R/A Jame Masjid, Padda R/A Rd, Chattogram","Category":"Religious Place","Type":"Mosque","Ownership":"","Ward_Name":0,"Zone":0}},{"type":"Feature","id":254,"geometry":{"type":"Point","coordinates":[91.795779800000005,22.335053500000001]},"properties":{"FID":254,"name":"Shyamoli Residential Area Jame Masjid Agrabad, Unnamed Road, Chattogram","Category":"Religious Place","Type":"Mosque","Ownership":"","Ward_Name":0,"Zone":0}},{"type":"Feature","id":255,"geometry":{"type":"Point","coordinates":[91.800203699999997,22.3354371]},"properties":{"FID":255,"name":"Rongipara Boro Jame Masjid, Padda R/A Rd, Chattogram","Category":"Religious Place","Type":"Mosque","Ownership":"","Ward_Name":0,"Zone":0}},{"type":"Feature","id":256,"geometry":{"type":"Point","coordinates":[91.806119899999999,22.3344892]},"properties":{"FID":256,"name":"Purbo Muhuri Para Jame Masjid, Unnamed Road, Chattogram","Category":"Religious Place","Type":"Mosque","Ownership":"","Ward_Name":0,"Zone":0}},{"type":"Feature","id":257,"geometry":{"type":"Point","coordinates":[91.805405300000004,22.334204499999998]},"properties":{"FID":257,"name":"Rangipara New Jame Masjid, Muhuri Para Road, Chattogram","Category":"Religious Place","Type":"Mosque","Ownership":"","Ward_Name":0,"Zone":0}},{"type":"Feature","id":258,"geometry":{"type":"Point","coordinates":[91.802602500000006,22.3329953]},"properties":{"FID":258,"name":"Muhuri Para Jame Masjid, Muhuri Para Road, Chattogram","Category":"Religious Place","Type":"Mosque","Ownership":"","Ward_Name":0,"Zone":0}},{"type":"Feature","id":259,"geometry":{"type":"Point","coordinates":[91.805223499999997,22.341996099999999]},"properties":{"FID":259,"name":"Wali Miah Contractor Jame Masjid, Dhaka Trunk Rd, Chattogram","Category":"Religious Place","Type":"Mosque","Ownership":"","Ward_Name":0,"Zone":0}},{"type":"Feature","id":260,"geometry":{"type":"Point","coordinates":[91.804795900000002,22.3339119]},"properties":{"FID":260,"name":"Yakub Bin Hajar Mosque, Muhuri Para Road, Chattogram","Category":"Religious Place","Type":"Mosque","Ownership":"","Ward_Name":0,"Zone":0}},{"type":"Feature","id":261,"geometry":{"type":"Point","coordinates":[91.806910700000003,22.3344858]},"properties":{"FID":261,"name":" ","Category":"Religious Place","Type":"Mosque","Ownership":"","Ward_Name":0,"Zone":0}},{"type":"Feature","id":262,"geometry":{"type":"Point","coordinates":[91.805964399999993,22.336885800000001]},"properties":{"FID":262,"name":"Khan Shaheb Abdul Hakim Jame mosque, Mistripara Rd, Chattogram","Category":"Religious Place","Type":"Mosque","Ownership":"","Ward_Name":0,"Zone":0}},{"type":"Feature","id":263,"geometry":{"type":"Point","coordinates":[91.804997700000001,22.339548799999999]},"properties":{"FID":263,"name":"Abdul Jalil Jam-A-Masjid, Khan Shaheb Abdul Hakim Mia Rd, Chattogram","Category":"Religious Place","Type":"Mosque","Ownership":"","Ward_Name":0,"Zone":0}},{"type":"Feature","id":264,"geometry":{"type":"Point","coordinates":[91.803442700000005,22.339540899999999]},"properties":{"FID":264,"name":"Baitul Mamur Ali Jam-A-Masjid, Poschimpara Road, Chattogram","Category":"Religious Place","Type":"Mosque","Ownership":"","Ward_Name":0,"Zone":0}},{"type":"Feature","id":265,"geometry":{"type":"Point","coordinates":[91.804095099999998,22.340116200000001]},"properties":{"FID":265,"name":"Imambari mosque, Alhaj Bajlul Karim Chowdhury Lane, Chattogram","Category":"Religious Place","Type":"Mosque","Ownership":"","Ward_Name":0,"Zone":0}},{"type":"Feature","id":266,"geometry":{"type":"Point","coordinates":[91.802296100000007,22.3349507]},"properties":{"FID":266,"name":"Muhuri Para Choto Masjid, Rahaman bari, North Muhuri Para Road, Chattogram","Category":"Religious Place","Type":"Mosque","Ownership":"","Ward_Name":0,"Zone":0}},{"type":"Feature","id":267,"geometry":{"type":"Point","coordinates":[91.807793899999993,22.337696099999999]},"properties":{"FID":267,"name":"Askarabad Jame Masjid, Askarabad, Laboratory gali, Chattogram","Category":"Religious Place","Type":"Mosque","Ownership":"","Ward_Name":0,"Zone":0}},{"type":"Feature","id":268,"geometry":{"type":"Point","coordinates":[91.806802099999999,22.341025699999999]},"properties":{"FID":268,"name":"Latifjan Bibi Jame Masjid, Dhaka Trunk Rd, Chattogram","Category":"Religious Place","Type":"Mosque","Ownership":"","Ward_Name":0,"Zone":0}},{"type":"Feature","id":269,"geometry":{"type":"Point","coordinates":[91.810381899999996,22.338965699999999]},"properties":{"FID":269,"name":"Askarabad Ghor Masjid, Askarabad D T Road, Laboratory lane, Chattogram","Category":"Religious Place","Type":"Mosque","Ownership":"","Ward_Name":0,"Zone":0}},{"type":"Feature","id":270,"geometry":{"type":"Point","coordinates":[91.812334000000007,22.338478299999998]},"properties":{"FID":270,"name":"Dewanhat Chanaullah (s.) Masjid, Dhaka Trunk Rd, Chattogram","Category":"Religious Place","Type":"Mosque","Ownership":"","Ward_Name":0,"Zone":0}},{"type":"Feature","id":271,"geometry":{"type":"Point","coordinates":[91.809629900000004,22.3340049]},"properties":{"FID":271,"name":"Baitul Jannat Jame Masjid, Agrabad, Chattogram","Category":"Religious Place","Type":"Mosque","Ownership":"","Ward_Name":0,"Zone":0}},{"type":"Feature","id":272,"geometry":{"type":"Point","coordinates":[91.809562299999996,22.336858800000002]},"properties":{"FID":272,"name":"Lal Masjid (Baitun Nur Jame Masjid), Mistripara Road,  Agrabad, Chattogram","Category":"Religious Place","Type":"Mosque","Ownership":"","Ward_Name":0,"Zone":0}},{"type":"Feature","id":273,"geometry":{"type":"Point","coordinates":[91.811674800000006,22.334084399999998]},"properties":{"FID":273,"name":"Karnaphuli Market Jame Masjid, Sheikh Mujib Road, Chattogram","Category":"Religious Place","Type":"Mosque","Ownership":"","Ward_Name":0,"Zone":0}},{"type":"Feature","id":274,"geometry":{"type":"Point","coordinates":[91.8121577,22.335697799999998]},"properties":{"FID":274,"name":"Sayeed Hasan Ali Masjid, Sheikh Mujib Rd, Chattogram","Category":"Religious Place","Type":"Mosque","Ownership":"","Ward_Name":0,"Zone":0}},{"type":"Feature","id":275,"geometry":{"type":"Point","coordinates":[91.813722799999994,22.338038399999999]},"properties":{"FID":275,"name":"Masjid E Dewania, Dhaka Trunk Rd, Chattogram","Category":"Religious Place","Type":"Mosque","Ownership":"","Ward_Name":0,"Zone":0}},{"type":"Feature","id":276,"geometry":{"type":"Point","coordinates":[91.812672599999999,22.335461899999999]},"properties":{"FID":276,"name":"Agrabad Fire Station Masjid, Fire Service and Civil Defence, Chattogram","Category":"Religious Place","Type":"Mosque","Ownership":"","Ward_Name":0,"Zone":0}},{"type":"Feature","id":277,"geometry":{"type":"Point","coordinates":[91.813239300000006,22.334616100000002]},"properties":{"FID":277,"name":"Al Mustafa Jame Mosque, Sheikh Mujib Road, Shultan Coloni,Choumohoni, Agrabad, Chattogram","Category":"Religious Place","Type":"Mosque","Ownership":"","Ward_Name":0,"Zone":0}},{"type":"Feature","id":278,"geometry":{"type":"Point","coordinates":[91.814335400000004,22.335989600000001]},"properties":{"FID":278,"name":"Baitun Noor Jame Masjid, Masjid Market, Dewanhat, Chattogram","Category":"Religious Place","Type":"Mosque","Ownership":"","Ward_Name":0,"Zone":0}},{"type":"Feature","id":279,"geometry":{"type":"Point","coordinates":[91.814739099999997,22.336334900000001]},"properties":{"FID":279,"name":"Baitur Rahmat Jame Masjid,1 No Supariwalapara, Supariwala Goli, Masjid Market, Chattogram","Category":"Religious Place","Type":"Mosque","Ownership":"","Ward_Name":0,"Zone":0}},{"type":"Feature","id":280,"geometry":{"type":"Point","coordinates":[91.818496800000005,22.334955399999998]},"properties":{"FID":280,"name":"Baitul Hamd Jame Masjid, MOTIAR POOL, Pathantuli Rd, Chattogram","Category":"Religious Place","Type":"Mosque","Ownership":"","Ward_Name":0,"Zone":0}},{"type":"Feature","id":281,"geometry":{"type":"Point","coordinates":[91.817980000000006,22.336031599999998]},"properties":{"FID":281,"name":"Baitul Aman Masjid, D.T. Road, Choto Masjid Goli, Dhonialapara, Chattogram","Category":"Religious Place","Type":"Mosque","Ownership":"","Ward_Name":0,"Zone":0}},{"type":"Feature","id":282,"geometry":{"type":"Point","coordinates":[91.817140600000002,22.334930100000001]},"properties":{"FID":282,"name":"Baitur Ridwan Jame Masjid, Dhaka Trunk Rd, Chattogram","Category":"Religious Place","Type":"Mosque","Ownership":"","Ward_Name":0,"Zone":0}},{"type":"Feature","id":283,"geometry":{"type":"Point","coordinates":[91.816745999999995,22.333332500000001]},"properties":{"FID":283,"name":"Ghaibi Masjid, Pathantuli Rd, Chaumuhani, Chattogram","Category":"Religious Place","Type":"Mosque","Ownership":"","Ward_Name":0,"Zone":0}},{"type":"Feature","id":284,"geometry":{"type":"Point","coordinates":[91.814656200000002,22.332588699999999]},"properties":{"FID":284,"name":"Pathantuli Chattswarai Ghaibi Mosque, Pathantuli Rd, Chattogram","Category":"Religious Place","Type":"Mosque","Ownership":"","Ward_Name":0,"Zone":0}},{"type":"Feature","id":285,"geometry":{"type":"Point","coordinates":[91.818488700000003,22.3328126]},"properties":{"FID":285,"name":"Ear Ali Jame Masjid, Commerce College Road, Chattogram","Category":"Religious Place","Type":"Mosque","Ownership":"","Ward_Name":0,"Zone":0}},{"type":"Feature","id":286,"geometry":{"type":"Point","coordinates":[91.815698900000001,22.323360300000001]},"properties":{"FID":286,"name":"Baituch Challah Jame Masjid, Unnamed Road, Chattogram","Category":"Religious Place","Type":"Mosque","Ownership":"","Ward_Name":0,"Zone":0}},{"type":"Feature","id":287,"geometry":{"type":"Point","coordinates":[91.812920000000005,22.3252506]},"properties":{"FID":287,"name":"Agrabad Par Railway Colony Jame Mosjid, Sheikh Mujib Rd, Chattogram","Category":"Religious Place","Type":"Mosque","Ownership":"","Ward_Name":0,"Zone":0}},{"type":"Feature","id":288,"geometry":{"type":"Point","coordinates":[91.816283900000002,22.331199099999999]},"properties":{"FID":288,"name":"Mog Pukur Par Jame Masjid, Agrabad, Chattogram","Category":"Religious Place","Type":"Mosque","Ownership":"","Ward_Name":0,"Zone":0}},{"type":"Feature","id":289,"geometry":{"type":"Point","coordinates":[91.819897299999994,22.329063399999999]},"properties":{"FID":289,"name":"Michipukur Par Jame Masjid, Jugi Chand Mosjhid Lane,West Mother Bari Bazar, Chattogram","Category":"Religious Place","Type":"Mosque","Ownership":"","Ward_Name":0,"Zone":0}},{"type":"Feature","id":290,"geometry":{"type":"Point","coordinates":[91.819053299999993,22.328288499999999]},"properties":{"FID":290,"name":"Baitus Salah Jame Masjid, 12 Quarter Ln, Chattogram","Category":"Religious Place","Type":"Mosque","Ownership":"","Ward_Name":0,"Zone":0}},{"type":"Feature","id":291,"geometry":{"type":"Point","coordinates":[91.819353100000001,22.325267799999999]},"properties":{"FID":291,"name":"Jugi Chad Masjid, Jugi Chand Mosjid Ln, Chattogram","Category":"Religious Place","Type":"Mosque","Ownership":"","Ward_Name":0,"Zone":0}},{"type":"Feature","id":292,"geometry":{"type":"Point","coordinates":[91.821534,22.329222999999999]},"properties":{"FID":292,"name":"Pelika Church and Maktab Mosque, Dhaka Trunk Rd, Chattogram","Category":"Religious Place","Type":"Mosque","Ownership":"","Ward_Name":0,"Zone":0}},{"type":"Feature","id":293,"geometry":{"type":"Point","coordinates":[91.818375700000004,22.327584399999999]},"properties":{"FID":293,"name":"12 Querter Jamme Masjid, Commerce College Road, Chattogram","Category":"Religious Place","Type":"Mosque","Ownership":"","Ward_Name":0,"Zone":0}},{"type":"Feature","id":294,"geometry":{"type":"Point","coordinates":[91.820819900000004,22.327467500000001]},"properties":{"FID":294,"name":"Late Daraf Ali Saudagar Jame Masjid, Dhaka Trunk Rd, Chattogram","Category":"Religious Place","Type":"Mosque","Ownership":"","Ward_Name":0,"Zone":0}},{"type":"Feature","id":295,"geometry":{"type":"Point","coordinates":[91.820344000000006,22.325166200000002]},"properties":{"FID":295,"name":"Baituchhalat Jame Masjid, Commander, No 1 lane, Chattogram","Category":"Religious Place","Type":"Mosque","Ownership":"","Ward_Name":0,"Zone":0}},{"type":"Feature","id":296,"geometry":{"type":"Point","coordinates":[91.795269099999999,22.316130900000001]},"properties":{"FID":296,"name":"Haji Idris Saudagar Jame Masjid, Abdul Latif Road, Bondor, Chattogram","Category":"Religious Place","Type":"Mosque","Ownership":"","Ward_Name":0,"Zone":0}},{"type":"Feature","id":297,"geometry":{"type":"Point","coordinates":[91.797393099999994,22.316518899999998]},"properties":{"FID":297,"name":"Baitul Falah Jam-E-Masjid, Port Connecting Rd, Chattogram","Category":"Religious Place","Type":"Mosque","Ownership":"","Ward_Name":0,"Zone":0}},{"type":"Feature","id":298,"geometry":{"type":"Point","coordinates":[91.794817499999994,22.314633499999999]},"properties":{"FID":298,"name":"Chittagong Port Jame Masjid, Port Colony Rd, Chattogram","Category":"Religious Place","Type":"Mosque","Ownership":"","Ward_Name":0,"Zone":0}},{"type":"Feature","id":299,"geometry":{"type":"Point","coordinates":[91.798212100000001,22.312615300000001]},"properties":{"FID":299,"name":"Custom House Jame Masjid, Port Colony Rd, Chattogram","Category":"Religious Place","Type":"Mosque","Ownership":"","Ward_Name":0,"Zone":0}},{"type":"Feature","id":300,"geometry":{"type":"Point","coordinates":[91.796107800000001,22.314465599999998]},"properties":{"FID":300,"name":"Chittagong Port Hospital Masjid., Complex,Port Hospital, Port Colony Rd, Chattogram","Category":"Religious Place","Type":"Mosque","Ownership":"","Ward_Name":0,"Zone":0}},{"type":"Feature","id":301,"geometry":{"type":"Point","coordinates":[91.798272600000004,22.314202900000002]},"properties":{"FID":301,"name":"Maqbool Ali Saw: Jame Masjid, Port Colony Rd, Chattogram","Category":"Religious Place","Type":"Mosque","Ownership":"","Ward_Name":0,"Zone":0}},{"type":"Feature","id":302,"geometry":{"type":"Point","coordinates":[91.799004699999998,22.3137106]},"properties":{"FID":302,"name":"Chattogram Port Authority Mosque, Route, Chattogram","Category":"Religious Place","Type":"Mosque","Ownership":"","Ward_Name":0,"Zone":0}},{"type":"Feature","id":303,"geometry":{"type":"Point","coordinates":[91.797133500000001,22.310646999999999]},"properties":{"FID":303,"name":"Port Training Institute Mosque, Port Link Rd, Chattogram","Category":"Religious Place","Type":"Mosque","Ownership":"","Ward_Name":0,"Zone":0}},{"type":"Feature","id":304,"geometry":{"type":"Point","coordinates":[91.779903300000001,22.292751200000001]},"properties":{"FID":304,"name":"Sri Sri Krishna Temple, EPZ, Chattogram","Category":"Religious Place","Type":"Temple","Ownership":"","Ward_Name":0,"Zone":0}},{"type":"Feature","id":305,"geometry":{"type":"Point","coordinates":[91.783418400000002,22.288232399999998]},"properties":{"FID":305,"name":"Darussalam Jame Masjid, Sayed corporation (1st floor) Bondartila, CEPZ Area, Chattogram","Category":"Religious Place","Type":"Mosque","Ownership":"","Ward_Name":0,"Zone":0}},{"type":"Feature","id":306,"geometry":{"type":"Point","coordinates":[91.779912699999997,22.289312500000001]},"properties":{"FID":306,"name":"Baitul Aman Jame Masjid, M.A Aziz Road, Bandar, Adjacent to EPZ, Chattogram","Category":"Religious Place","Type":"Mosque","Ownership":"","Ward_Name":0,"Zone":0}},{"type":"Feature","id":307,"geometry":{"type":"Point","coordinates":[91.779631899999998,22.291980500000001]},"properties":{"FID":307,"name":"Phara Raung Khraytaw Kyaung, Buddhist temple, BEPZA College Rd, Chattogram","Category":"Religious Place","Type":"Buddhist Temple","Ownership":"","Ward_Name":0,"Zone":0}},{"type":"Feature","id":308,"geometry":{"type":"Point","coordinates":[91.774475300000006,22.290683699999999]},"properties":{"FID":308,"name":"UP Apparels & Textiles Masjid, Unnamed Road, Chattogram","Category":"Religious Place","Type":"Mosque","Ownership":"","Ward_Name":0,"Zone":0}},{"type":"Feature","id":309,"geometry":{"type":"Point","coordinates":[91.781343500000006,22.286331499999999]},"properties":{"FID":309,"name":"Sri Sri Magadeswari Mother Temple, CEPZ, Chattogram","Category":"Religious Place","Type":"Temple","Ownership":"","Ward_Name":0,"Zone":0}},{"type":"Feature","id":310,"geometry":{"type":"Point","coordinates":[91.784386600000005,22.284896]},"properties":{"FID":310,"name":"Ali Shah Masjid, M. A Aziz Road, Chattogram","Category":"Religious Place","Type":"Mosque","Ownership":"","Ward_Name":0,"Zone":0}},{"type":"Feature","id":311,"geometry":{"type":"Point","coordinates":[91.781494199999997,22.285903000000001]},"properties":{"FID":311,"name":"Sri Sri Raksha Kali Mother Temple, Modina Market Rd, Chattogram","Category":"Religious Place","Type":"Temple","Ownership":"","Ward_Name":0,"Zone":0}},{"type":"Feature","id":312,"geometry":{"type":"Point","coordinates":[91.782151299999995,22.2847945]},"properties":{"FID":312,"name":"Asma Ali Forkania Madrasa & Moshjid, Modina Market Rd, Chittagong","Category":"Religious Place","Type":"Mosque","Ownership":"","Ward_Name":0,"Zone":0}},{"type":"Feature","id":313,"geometry":{"type":"Point","coordinates":[91.773431099999996,22.281914799999999]},"properties":{"FID":313,"name":"HKD International Mosque, HKD International (BD) Ltd., Chattogram","Category":"Religious Place","Type":"Mosque","Ownership":"","Ward_Name":0,"Zone":0}},{"type":"Feature","id":314,"geometry":{"type":"Point","coordinates":[91.780401999999995,22.280581000000002]},"properties":{"FID":314,"name":"Haji Mohammad Ali Jame Masjid, Madraji Shah Road, Chattogram","Category":"Religious Place","Type":"Mosque","Ownership":"","Ward_Name":0,"Zone":0}},{"type":"Feature","id":315,"geometry":{"type":"Point","coordinates":[91.777017999999998,22.277617800000002]},"properties":{"FID":315,"name":"Muhammadia jamia Shareef Mosjid, Akmol Ali Road, Chattogram","Category":"Religious Place","Type":"Mosque","Ownership":"","Ward_Name":0,"Zone":0}},{"type":"Feature","id":316,"geometry":{"type":"Point","coordinates":[91.775961600000002,22.277202500000001]},"properties":{"FID":316,"name":"Humayun Bagh Jamey Mosque, Rosi Kabir Road, Chattogram","Category":"Religious Place","Type":"Mosque","Ownership":"","Ward_Name":0,"Zone":0}},{"type":"Feature","id":317,"geometry":{"type":"Point","coordinates":[91.777942800000005,22.279109399999999]},"properties":{"FID":317,"name":"Sri Sri Hariguru Chand Combined Matua Bhakta Sangh, Hindu temple, Ali Monshi Rd, Chattogram","Category":"Religious Place","Type":"Temple","Ownership":"","Ward_Name":0,"Zone":0}},{"type":"Feature","id":318,"geometry":{"type":"Point","coordinates":[91.781172100000006,22.279368399999999]},"properties":{"FID":318,"name":"Jannatul Ferdou Jame Mosque, Akmol ali road, Chattogram","Category":"Religious Place","Type":"Mosque","Ownership":"","Ward_Name":0,"Zone":0}},{"type":"Feature","id":319,"geometry":{"type":"Point","coordinates":[91.777856099999994,22.276116099999999]},"properties":{"FID":319,"name":"Alhaj S Alam Contractor Jame Masjid, Akmal Ali Road, Chattogram","Category":"Religious Place","Type":"Mosque","Ownership":"","Ward_Name":0,"Zone":0}},{"type":"Feature","id":320,"geometry":{"type":"Point","coordinates":[91.779888900000003,22.275621900000001]},"properties":{"FID":320,"name":"Bagdad Sharif (RA) Jame Masjid, Qazir Street, Chattogram","Category":"Religious Place","Type":"Mosque","Ownership":"","Ward_Name":0,"Zone":0}},{"type":"Feature","id":321,"geometry":{"type":"Point","coordinates":[91.778019700000002,22.275679100000001]},"properties":{"FID":321,"name":"S Alam Contactor Jama Masjid, Khalpar, Chattogram","Category":"Religious Place","Type":"Mosque","Ownership":"","Ward_Name":0,"Zone":0}},{"type":"Feature","id":322,"geometry":{"type":"Point","coordinates":[91.782002800000001,22.275353800000001]},"properties":{"FID":322,"name":"Wadudiya Jamea Masjid, Hawker Goli, Chattogram","Category":"Religious Place","Type":"Mosque","Ownership":"","Ward_Name":0,"Zone":0}},{"type":"Feature","id":323,"geometry":{"type":"Point","coordinates":[91.783706600000002,22.274262499999999]},"properties":{"FID":323,"name":"Alhaj Farsi Mia Jame Masjid, Haque Street, Chattogram","Category":"Religious Place","Type":"Mosque","Ownership":"","Ward_Name":0,"Zone":0}},{"type":"Feature","id":324,"geometry":{"type":"Point","coordinates":[91.783032300000002,22.2715335]},"properties":{"FID":324,"name":"HCBL Colony Masjid, Wasar Street, Chattogram","Category":"Religious Place","Type":"Mosque","Ownership":"","Ward_Name":0,"Zone":0}},{"type":"Feature","id":325,"geometry":{"type":"Point","coordinates":[91.778825400000002,22.2751983]},"properties":{"FID":325,"name":"Baitul Hikmah Jame Masjid & Madrasah Complex, Akmal Ali Road, Chattogram","Category":"Religious Place","Type":"Mosque","Ownership":"","Ward_Name":0,"Zone":0}},{"type":"Feature","id":326,"geometry":{"type":"Point","coordinates":[91.786082800000003,22.274491600000001]},"properties":{"FID":326,"name":"Haque Saheb Jame Masjid, Khejurtola, M. A Aziz Rd, Chattogram","Category":"Religious Place","Type":"Mosque","Ownership":"","Ward_Name":0,"Zone":0}},{"type":"Feature","id":327,"geometry":{"type":"Point","coordinates":[91.775210799999996,22.2682118]},"properties":{"FID":327,"name":"Hajarat Khijir Jame Masjid, Housing Colony Rd, Chattogram","Category":"Religious Place","Type":"Mosque","Ownership":"","Ward_Name":0,"Zone":0}},{"type":"Feature","id":328,"geometry":{"type":"Point","coordinates":[91.779623599999994,22.269730800000001]},"properties":{"FID":328,"name":"Drydock Jame Masjid, Wasar Gully, Chattogram","Category":"Religious Place","Type":"Mosque","Ownership":"","Ward_Name":0,"Zone":0}},{"type":"Feature","id":329,"geometry":{"type":"Point","coordinates":[91.787012899999993,22.271315399999999]},"properties":{"FID":329,"name":"Morhum Al Bela Khatun Ebadat Khana Mosque, M. A Aziz Road, Chattogram","Category":"Religious Place","Type":"Mosque","Ownership":"","Ward_Name":0,"Zone":0}},{"type":"Feature","id":330,"geometry":{"type":"Point","coordinates":[91.784262200000001,22.2691114]},"properties":{"FID":330,"name":"Housing Colony Jame Mosjid, Housing Colony Rd, Chattogram","Category":"Religious Place","Type":"Mosque","Ownership":"","Ward_Name":0,"Zone":0}},{"type":"Feature","id":331,"geometry":{"type":"Point","coordinates":[91.787088900000001,22.271523500000001]},"properties":{"FID":331,"name":"Shafi Ahmed (B.Sc) Jame Masjid, M. A Aziz Road, Chattogram","Category":"Religious Place","Type":"Mosque","Ownership":"","Ward_Name":0,"Zone":0}},{"type":"Feature","id":332,"geometry":{"type":"Point","coordinates":[91.784931099999994,22.2729702]},"properties":{"FID":332,"name":"Alhaj Jakir Hosaain Contractor Jame Masjid,, Wasi Gali, Joutho Abashik Colony Road, Chattogram","Category":"Religious Place","Type":"Mosque","Ownership":"","Ward_Name":0,"Zone":0}},{"type":"Feature","id":333,"geometry":{"type":"Point","coordinates":[91.781512899999996,22.265881400000001]},"properties":{"FID":333,"name":"Syed Ahmed Jame Masjid, Mokbul Ahmed, Chattogram","Category":"Religious Place","Type":"Mosque","Ownership":"","Ward_Name":0,"Zone":0}},{"type":"Feature","id":334,"geometry":{"type":"Point","coordinates":[91.785163600000004,22.267283899999999]},"properties":{"FID":334,"name":"Baitur Rahman Ahle Hadis Jame Masjid,  M. A Aziz Rd, Chattogram","Category":"Religious Place","Type":"Mosque","Ownership":"","Ward_Name":0,"Zone":0}},{"type":"Feature","id":335,"geometry":{"type":"Point","coordinates":[91.781438800000004,22.268560600000001]},"properties":{"FID":335,"name":"Baitur Ridwan Jame Masjid, Housing Colony Rd, Chattogram","Category":"Religious Place","Type":"Mosque","Ownership":"","Ward_Name":0,"Zone":0}},{"type":"Feature","id":336,"geometry":{"type":"Point","coordinates":[91.783685700000007,22.268089100000001]},"properties":{"FID":336,"name":"Alhaj maqbool Ahmed jama masjid 2, Housing Colony Rd, Chattogram","Category":"Religious Place","Type":"Mosque","Ownership":"","Ward_Name":0,"Zone":0}},{"type":"Feature","id":337,"geometry":{"type":"Point","coordinates":[91.790596699999995,22.261133900000001]},"properties":{"FID":337,"name":"Eastern Refinery Housing Estate Jame Mosque, M. A Aziz Road, Chattogram","Category":"Religious Place","Type":"Mosque","Ownership":"","Ward_Name":0,"Zone":0}},{"type":"Feature","id":338,"geometry":{"type":"Point","coordinates":[91.784783200000007,22.249575199999999]},"properties":{"FID":338,"name":"Late Md Mokhleshur and Ekhlachur Rahman Jame Masjid, Unnamed Road, Chattogram","Category":"Religious Place","Type":"Mosque","Ownership":"","Ward_Name":0,"Zone":0}},{"type":"Feature","id":339,"geometry":{"type":"Point","coordinates":[91.790038999999993,22.259474600000001]},"properties":{"FID":339,"name":"Muslimabad Khizir (AS) Jame Masjid, Muslimabad Rd, Chattogram","Category":"Religious Place","Type":"Mosque","Ownership":"","Ward_Name":0,"Zone":0}},{"type":"Feature","id":340,"geometry":{"type":"Point","coordinates":[91.785426999999999,22.252923599999999]},"properties":{"FID":340,"name":"Begumganj Housing Jame Masjid, Unnamed Road, Chattogram","Category":"Religious Place","Type":"Mosque","Ownership":"","Ward_Name":0,"Zone":0}},{"type":"Feature","id":341,"geometry":{"type":"Point","coordinates":[91.787544600000004,22.251611100000002]},"properties":{"FID":341,"name":"Shakyamuni Buddist Temple & RDNA meditation center, Unnamed Road, Chattogram","Category":"Religious Place","Type":"Buddhist Temple","Ownership":"","Ward_Name":0,"Zone":0}},{"type":"Feature","id":342,"geometry":{"type":"Point","coordinates":[91.782841099999999,22.2575976]},"properties":{"FID":342,"name":"West Muslimabad Jame Masjid, Muslimabad Rd, Chattogram","Category":"Religious Place","Type":"Mosque","Ownership":"","Ward_Name":0,"Zone":0}},{"type":"Feature","id":343,"geometry":{"type":"Point","coordinates":[91.786689300000006,22.258462000000002]},"properties":{"FID":343,"name":"Alhaj Hafizur Rahman Jame Masjid, Unnamed Road, Chattogram","Category":"Religious Place","Type":"Mosque","Ownership":"","Ward_Name":0,"Zone":0}},{"type":"Feature","id":344,"geometry":{"type":"Point","coordinates":[91.805775699999998,22.361414799999999]},"properties":{"FID":344,"name":"RNB Training Center Jame Masjid, Zakir Hossain Rd, Chattogram","Category":"Religious Place","Type":"Mosque","Ownership":"","Ward_Name":0,"Zone":0}},{"type":"Feature","id":345,"geometry":{"type":"Point","coordinates":[91.8166595,22.360570200000002]},"properties":{"FID":345,"name":"Omargani MES University College Jame Masjid, Zakir Hossain Rd, Chattogram","Category":"Religious Place","Type":"Mosque","Ownership":"","Ward_Name":0,"Zone":0}},{"type":"Feature","id":346,"geometry":{"type":"Point","coordinates":[91.820020299999996,22.362755400000001]},"properties":{"FID":346,"name":"Almas Khatun Jame Masjid, Zakir Hossain By Ln, Chattogram","Category":"Religious Place","Type":"Mosque","Ownership":"","Ward_Name":0,"Zone":0}},{"type":"Feature","id":347,"geometry":{"type":"Point","coordinates":[91.816790900000001,22.362133]},"properties":{"FID":347,"name":"Nasirabad Shahi Jame Masjid, Zakir Hossain By Ln, Chattogram","Category":"Religious Place","Type":"Mosque","Ownership":"","Ward_Name":0,"Zone":0}},{"type":"Feature","id":348,"geometry":{"type":"Point","coordinates":[91.784728099999995,22.385756499999999]},"properties":{"FID":348,"name":"Baitul Jannat Jam-e-mosque, Bayezid Link Rd, Chattogram","Category":"Religious Place","Type":"Mosque","Ownership":"","Ward_Name":0,"Zone":0}},{"type":"Feature","id":349,"geometry":{"type":"Point","coordinates":[91.797453000000004,22.3855237]},"properties":{"FID":349,"name":"Bayezid Bostami Rah. Jame Masjid, Bayezid Link Rd, Chattogram","Category":"Religious Place","Type":"Mosque","Ownership":"","Ward_Name":0,"Zone":0}},{"type":"Feature","id":350,"geometry":{"type":"Point","coordinates":[91.807028099999997,22.386241900000002]},"properties":{"FID":350,"name":"Baitur Rahman Jame Masjid and Noorani Madrasa, Bayezid Link Rd, Chattogram","Category":"Religious Place","Type":"Mosque","Ownership":"","Ward_Name":0,"Zone":0}},{"type":"Feature","id":351,"geometry":{"type":"Point","coordinates":[91.8055351,22.386323699999998]},"properties":{"FID":351,"name":"Baitur Rahman Jame Moshjid, Bayezid Link Rd, Chattogram","Category":"Religious Place","Type":"Mosque","Ownership":"","Ward_Name":0,"Zone":0}},{"type":"Feature","id":352,"geometry":{"type":"Point","coordinates":[91.835385700000003,22.400839900000001]},"properties":{"FID":352,"name":"Shah Amanat (RA) Jame Mosque, Oxygen - Kuwaish Rd, Chattogram","Category":"Religious Place","Type":"Mosque","Ownership":"","Ward_Name":0,"Zone":0}},{"type":"Feature","id":353,"geometry":{"type":"Point","coordinates":[91.870360500000004,22.398871400000001]},"properties":{"FID":353,"name":"Manhur Ali Chowdhury Jame Masjid, Chittagong - Kaptai Rd, Chattogram","Category":"Religious Place","Type":"Mosque","Ownership":"","Ward_Name":0,"Zone":0}},{"type":"Feature","id":354,"geometry":{"type":"Point","coordinates":[91.869172599999999,22.395671799999999]},"properties":{"FID":354,"name":"Ejhar Chawdhury Jame Mosjid, Unnamed Road, Chattogram","Category":"Religious Place","Type":"Mosque","Ownership":"","Ward_Name":0,"Zone":0}},{"type":"Feature","id":355,"geometry":{"type":"Point","coordinates":[91.818838999999997,22.401282800000001]},"properties":{"FID":355,"name":"Je. Bottoli Baitul Hamd Hashemi Shahi Jame Mosque, Chittagong - Rangamati Hwy, Chattogram","Category":"Religious Place","Type":"Mosque","Ownership":"","Ward_Name":0,"Zone":0}},{"type":"Feature","id":356,"geometry":{"type":"Point","coordinates":[91.819053600000004,22.414485800000001]},"properties":{"FID":356,"name":"Baro Aulia Mukarram Jame Masjid, Chittagong - Rangamati Khagrachhari Rd, Chattogram","Category":"Religious Place","Type":"Mosque","Ownership":"","Ward_Name":0,"Zone":0}},{"type":"Feature","id":357,"geometry":{"type":"Point","coordinates":[91.816895099999996,22.409145599999999]},"properties":{"FID":357,"name":"Abdul Quader Jilani Jame Masjid, Tiger Rd, Chattogram","Category":"Religious Place","Type":"Mosque","Ownership":"","Ward_Name":0,"Zone":0}},{"type":"Feature","id":358,"geometry":{"type":"Point","coordinates":[91.819852299999994,22.421102000000001]},"properties":{"FID":358,"name":"Baitul Aman Jame Masjid, Hathazari Road, Chattogram","Category":"Religious Place","Type":"Mosque","Ownership":"","Ward_Name":0,"Zone":0}},{"type":"Feature","id":359,"geometry":{"type":"Point","coordinates":[91.819196500000004,22.428514799999999]},"properties":{"FID":359,"name":"Majhir Para Baitun Nur Jame Masjid, Chittagong - Rangamati Road, Chattogram","Category":"Religious Place","Type":"Mosque","Ownership":"","Ward_Name":0,"Zone":0}},{"type":"Feature","id":360,"geometry":{"type":"Point","coordinates":[91.820090300000004,22.434149399999999]},"properties":{"FID":360,"name":"Sultan Nashrat Shah Masjid, Chattogram - Rangamati-Khagrachari Highway, Chattogram","Category":"Religious Place","Type":"Mosque","Ownership":"","Ward_Name":0,"Zone":0}},{"type":"Feature","id":361,"geometry":{"type":"Point","coordinates":[91.819035,22.438365000000001]},"properties":{"FID":361,"name":"Syedna Hazrat Uthman bin Affan (ra) Al Ghani Zunnorain Jame Masjid, Hathajari Highway, Chattogram","Category":"Religious Place","Type":"Mosque","Ownership":"","Ward_Name":0,"Zone":0}},{"type":"Feature","id":362,"geometry":{"type":"Point","coordinates":[91.818500999999998,22.443360999999999]},"properties":{"FID":362,"name":"Chona Gazi Bari Masjid, Chona Gazi Bari, Chattogram - Rangamati-Khagrachari Highway, Chattogram","Category":"Religious Place","Type":"Mosque","Ownership":"","Ward_Name":0,"Zone":0}},{"type":"Feature","id":363,"geometry":{"type":"Point","coordinates":[91.819812299999995,22.441630700000001]},"properties":{"FID":363,"name":"Chowdhuryhat Mosque, Chattogram - Rangamati-Khagrachari Highway, Chattogram","Category":"Religious Place","Type":"Mosque","Ownership":"","Ward_Name":0,"Zone":0}},{"type":"Feature","id":364,"geometry":{"type":"Point","coordinates":[91.817706599999994,22.4502861]},"properties":{"FID":364,"name":"Hazrat Inayat Ullah Sah (R) Jamee Mosque, Chattogram - Rangamati-Khagrachari Highway, Chattogram","Category":"Religious Place","Type":"Mosque","Ownership":"","Ward_Name":0,"Zone":0}},{"type":"Feature","id":365,"geometry":{"type":"Point","coordinates":[91.818302200000005,22.4472907]},"properties":{"FID":365,"name":"Fatehabad Central Jame Masjid, Chattogram - Rangamati-Khagrachari Highway, Chattogram","Category":"Religious Place","Type":"Mosque","Ownership":"","Ward_Name":0,"Zone":0}},{"type":"Feature","id":366,"geometry":{"type":"Point","coordinates":[91.816663000000005,22.458325599999998]},"properties":{"FID":366,"name":"Jamee Mosjid, Chattogram - Rangamati-Khagrachari Highway, Chattogram","Category":"Religious Place","Type":"Mosque","Ownership":"","Ward_Name":0,"Zone":0}},{"type":"Feature","id":367,"geometry":{"type":"Point","coordinates":[91.814137000000002,22.462192600000002]},"properties":{"FID":367,"name":"Sri Sri Radhakrishna Jeeura Mandir (shrine), Sahajipara, Nandirhat, Hathazari, Chattogram","Category":"Religious Place","Type":"Temple","Ownership":"","Ward_Name":0,"Zone":0}},{"type":"Feature","id":368,"geometry":{"type":"Point","coordinates":[91.816480900000002,22.466310799999999]},